nom,latitude,longitude,,,,,,,,,,,,,,,,,,,,,,,,,,,,,,,,,,,,latitude_centre,longitude_centre
L'Abergement-Clémenciat,46.153,4.926,,,,,,,,,,,,,,,,,,,,,,,,,,,,,,,,,,,,46.153,4.926
L'Abergement-de-Varey,46.009,5.428,,,,,,,,,,,,,,,,,,,,,,,,,,,,,,,,,,,,46.009,5.428
Ambérieu-en-Bugey,45.961,5.373,,,,,,,,,,,,,,,,,,,,,,,,,,,,,,,,,,,,45.961,5.373
Ambérieux-en-Dombes,45.996,4.912,,,,,,,,,,,,,,,,,,,,,,,,,,,,,,,,,,,,45.996,4.912
Ambléon,45.75,5.594,,,,,,,,,,,,,,,,,,,,,,,,,,,,,,,,,,,,45.75,5.594
Ambronay,46.006,5.358,,,,,,,,,,,,,,,,,,,,,,,,,,,,,,,,,,,,46.006,5.358
Ambutrix,45.937,5.333,,,,,,,,,,,,,,,,,,,,,,,,,,,,,,,,,,,,45.937,5.333
Andert-et-Condon,45.787,5.658,,,,,,,,,,,,,,,,,,,,,,,,,,,,,,,,,,,,45.787,5.658
Anglefort,45.909,5.795,,,,,,,,,,,,,,,,,,,,,,,,,,,,,,,,,,,,45.909,5.795
Apremont,46.206,5.658,,,,,,,,,,,,,,,,,,,,,,,,,,,,,,,,,,,,46.206,5.658
Aranc,46.002,5.511,,,,,,,,,,,,,,,,,,,,,,,,,,,,,,,,,,,,46.002,5.511
Arandas,45.891,5.499,,,,,,,,,,,,,,,,,,,,,,,,,,,,,,,,,,,,45.891,5.499
Arbent,46.284,5.691,,,,,,,,,,,,,,,,,,,,,,,,,,,,,,,,,,,,46.284,5.691
Arboys en Bugey,45.724,5.653,,,,,,,,,,,,,,,,,,,,,,,,,,,,,,,,,,,,45.724,5.653
Arbigny,46.478,4.96,,,,,,,,,,,,,,,,,,,,,,,,,,,,,,,,,,,,46.478,4.96
Argis,45.934,5.482,,,,,,,,,,,,,,,,,,,,,,,,,,,,,,,,,,,,45.934,5.482
Armix,45.854,5.584,,,,,,,,,,,,,,,,,,,,,,,,,,,,,,,,,,,,45.854,5.584
Ars-sur-Formans,45.994,4.822,,,,,,,,,,,,,,,,,,,,,,,,,,,,,,,,,,,,45.994,4.822
Artemare,45.87,5.691,,,,,,,,,,,,,,,,,,,,,,,,,,,,,,,,,,,,45.87,5.691
Asnières-sur-Saône,46.386,4.884,,,,,,,,,,,,,,,,,,,,,,,,,,,,,,,,,,,,46.386,4.884
Attignat,46.286,5.18,,,,,,,,,,,,,,,,,,,,,,,,,,,,,,,,,,,,46.286,5.18
Bâgé-Dommartin,46.323,4.953,,,,,,,,,,,,,,,,,,,,,,,,,,,,,,,,,,,,46.323,4.953
Bâgé-le-Châtel,46.308,4.929,,,,,,,,,,,,,,,,,,,,,,,,,,,,,,,,,,,,46.308,4.929
Balan,45.831,5.108,,,,,,,,,,,,,,,,,,,,,,,,,,,,,,,,,,,,45.831,5.108
Baneins,46.114,4.902,,,,,,,,,,,,,,,,,,,,,,,,,,,,,,,,,,,,46.114,4.902
Beaupont,46.429,5.26,,,,,,,,,,,,,,,,,,,,,,,,,,,,,,,,,,,,46.429,5.26
Beauregard,46.001,4.756,,,,,,,,,,,,,,,,,,,,,,,,,,,,,,,,,,,,46.001,4.756
Bellignat,46.237,5.636,,,,,,,,,,,,,,,,,,,,,,,,,,,,,,,,,,,,46.237,5.636
Béligneux,45.859,5.14,,,,,,,,,,,,,,,,,,,,,,,,,,,,,,,,,,,,45.859,5.14
Valserhône,46.107,5.832,,,,,,,,,,,,,,,,,,,,,,,,,,,,,,,,,,,,46.107,5.832
Belley,45.75,5.684,,,,,,,,,,,,,,,,,,,,,,,,,,,,,,,,,,,,45.75,5.684
Belleydoux,46.253,5.785,,,,,,,,,,,,,,,,,,,,,,,,,,,,,,,,,,,,46.253,5.785
Valromey-sur-Séran,45.885,5.651,,,,,,,,,,,,,,,,,,,,,,,,,,,,,,,,,,,,45.885,5.651
Bénonces,45.838,5.483,,,,,,,,,,,,,,,,,,,,,,,,,,,,,,,,,,,,45.838,5.483
Bény,46.319,5.282,,,,,,,,,,,,,,,,,,,,,,,,,,,,,,,,,,,,46.319,5.282
Béréziat,46.367,5.04,,,,,,,,,,,,,,,,,,,,,,,,,,,,,,,,,,,,46.367,5.04
Bettant,45.937,5.367,,,,,,,,,,,,,,,,,,,,,,,,,,,,,,,,,,,,45.937,5.367
Bey,46.219,4.846,,,,,,,,,,,,,,,,,,,,,,,,,,,,,,,,,,,,46.219,4.846
Beynost,45.839,4.997,,,,,,,,,,,,,,,,,,,,,,,,,,,,,,,,,,,,45.839,4.997
Billiat,46.079,5.766,,,,,,,,,,,,,,,,,,,,,,,,,,,,,,,,,,,,46.079,5.766
Birieux,45.953,5.037,,,,,,,,,,,,,,,,,,,,,,,,,,,,,,,,,,,,45.953,5.037
Biziat,46.227,4.941,,,,,,,,,,,,,,,,,,,,,,,,,,,,,,,,,,,,46.227,4.941
Blyes,45.847,5.252,,,,,,,,,,,,,,,,,,,,,,,,,,,,,,,,,,,,45.847,5.252
La Boisse,45.845,5.028,,,,,,,,,,,,,,,,,,,,,,,,,,,,,,,,,,,,45.845,5.028
Boissey,46.373,4.999,,,,,,,,,,,,,,,,,,,,,,,,,,,,,,,,,,,,46.373,4.999
Bolozon,46.196,5.471,,,,,,,,,,,,,,,,,,,,,,,,,,,,,,,,,,,,46.196,5.471
Bouligneux,46.023,4.992,,,,,,,,,,,,,,,,,,,,,,,,,,,,,,,,,,,,46.023,4.992
Bourg-en-Bresse,46.205,5.246,,,,,,,,,,,,,,,,,,,,,,,,,,,,,,,,,,,,46.205,5.246
Bourg-Saint-Christophe,45.886,5.144,,,,,,,,,,,,,,,,,,,,,,,,,,,,,,,,,,,,45.886,5.144
Boyeux-Saint-Jérôme,46.036,5.463,,,,,,,,,,,,,,,,,,,,,,,,,,,,,,,,,,,,46.036,5.463
Boz,46.405,4.914,,,,,,,,,,,,,,,,,,,,,,,,,,,,,,,,,,,,46.405,4.914
Brégnier-Cordon,45.642,5.616,,,,,,,,,,,,,,,,,,,,,,,,,,,,,,,,,,,,45.642,5.616
Brénod,46.076,5.614,,,,,,,,,,,,,,,,,,,,,,,,,,,,,,,,,,,,46.076,5.614
Brens,45.714,5.69,,,,,,,,,,,,,,,,,,,,,,,,,,,,,,,,,,,,45.714,5.69
Bressolles,45.869,5.101,,,,,,,,,,,,,,,,,,,,,,,,,,,,,,,,,,,,45.869,5.101
Brion,46.169,5.547,,,,,,,,,,,,,,,,,,,,,,,,,,,,,,,,,,,,46.169,5.547
Briord,45.771,5.485,,,,,,,,,,,,,,,,,,,,,,,,,,,,,,,,,,,,45.771,5.485
Buellas,46.21,5.145,,,,,,,,,,,,,,,,,,,,,,,,,,,,,,,,,,,,46.21,5.145
La Burbanche,45.86,5.546,,,,,,,,,,,,,,,,,,,,,,,,,,,,,,,,,,,,45.86,5.546
Ceignes,46.126,5.495,,,,,,,,,,,,,,,,,,,,,,,,,,,,,,,,,,,,46.126,5.495
Cerdon,46.072,5.476,,,,,,,,,,,,,,,,,,,,,,,,,,,,,,,,,,,,46.072,5.476
Certines,46.134,5.262,,,,,,,,,,,,,,,,,,,,,,,,,,,,,,,,,,,,46.134,5.262
Cessy,46.316,6.078,,,,,,,,,,,,,,,,,,,,,,,,,,,,,,,,,,,,46.316,6.078
Ceyzériat,46.183,5.32,,,,,,,,,,,,,,,,,,,,,,,,,,,,,,,,,,,,46.183,5.32
Ceyzérieu,45.834,5.719,,,,,,,,,,,,,,,,,,,,,,,,,,,,,,,,,,,,45.834,5.719
Chalamont,46.008,5.169,,,,,,,,,,,,,,,,,,,,,,,,,,,,,,,,,,,,46.008,5.169
Chaleins,46.034,4.798,,,,,,,,,,,,,,,,,,,,,,,,,,,,,,,,,,,,46.034,4.798
Chaley,45.953,5.537,,,,,,,,,,,,,,,,,,,,,,,,,,,,,,,,,,,,45.953,5.537
Challes-la-Montagne,46.122,5.458,,,,,,,,,,,,,,,,,,,,,,,,,,,,,,,,,,,,46.122,5.458
Challex,46.177,5.971,,,,,,,,,,,,,,,,,,,,,,,,,,,,,,,,,,,,46.177,5.971
Champagne-en-Valromey,45.932,5.693,,,,,,,,,,,,,,,,,,,,,,,,,,,,,,,,,,,,45.932,5.693
Champdor-Corcelles,46.02,5.6,,,,,,,,,,,,,,,,,,,,,,,,,,,,,,,,,,,,46.02,5.6
Champfromier,46.22,5.822,,,,,,,,,,,,,,,,,,,,,,,,,,,,,,,,,,,,46.22,5.822
Chanay,46.006,5.769,,,,,,,,,,,,,,,,,,,,,,,,,,,,,,,,,,,,46.006,5.769
Chaneins,46.094,4.855,,,,,,,,,,,,,,,,,,,,,,,,,,,,,,,,,,,,46.094,4.855
Chanoz-Châtenay,46.186,5.028,,,,,,,,,,,,,,,,,,,,,,,,,,,,,,,,,,,,46.186,5.028
La Chapelle-du-Châtelard,46.074,5.022,,,,,,,,,,,,,,,,,,,,,,,,,,,,,,,,,,,,46.074,5.022
Charix,46.186,5.681,,,,,,,,,,,,,,,,,,,,,,,,,,,,,,,,,,,,46.186,5.681
Charnoz-sur-Ain,45.874,5.221,,,,,,,,,,,,,,,,,,,,,,,,,,,,,,,,,,,,45.874,5.221
Château-Gaillard,45.973,5.308,,,,,,,,,,,,,,,,,,,,,,,,,,,,,,,,,,,,45.973,5.308
Châtenay,46.026,5.205,,,,,,,,,,,,,,,,,,,,,,,,,,,,,,,,,,,,46.026,5.205
Châtillon-la-Palud,45.975,5.242,,,,,,,,,,,,,,,,,,,,,,,,,,,,,,,,,,,,45.975,5.242
Châtillon-sur-Chalaronne,46.123,4.958,,,,,,,,,,,,,,,,,,,,,,,,,,,,,,,,,,,,46.123,4.958
Chavannes-sur-Reyssouze,46.438,5.007,,,,,,,,,,,,,,,,,,,,,,,,,,,,,,,,,,,,46.438,5.007
Nivigne et Suran,46.275,5.416,,,,,,,,,,,,,,,,,,,,,,,,,,,,,,,,,,,,46.275,5.416
Chaveyriat,46.199,5.056,,,,,,,,,,,,,,,,,,,,,,,,,,,,,,,,,,,,46.199,5.056
Chazey-Bons,45.793,5.685,,,,,,,,,,,,,,,,,,,,,,,,,,,,,,,,,,,,45.793,5.685
Chazey-sur-Ain,45.893,5.255,,,,,,,,,,,,,,,,,,,,,,,,,,,,,,,,,,,,45.893,5.255
Cheignieu-la-Balme,45.823,5.605,,,,,,,,,,,,,,,,,,,,,,,,,,,,,,,,,,,,45.823,5.605
Chevillard,46.11,5.581,,,,,,,,,,,,,,,,,,,,,,,,,,,,,,,,,,,,46.11,5.581
Chevroux,46.382,4.963,,,,,,,,,,,,,,,,,,,,,,,,,,,,,,,,,,,,46.382,4.963
Chevry,46.283,6.047,,,,,,,,,,,,,,,,,,,,,,,,,,,,,,,,,,,,46.283,6.047
Chézery-Forens,46.223,5.872,,,,,,,,,,,,,,,,,,,,,,,,,,,,,,,,,,,,46.223,5.872
Civrieux,45.922,4.886,,,,,,,,,,,,,,,,,,,,,,,,,,,,,,,,,,,,45.922,4.886
Cize,46.2,5.451,,,,,,,,,,,,,,,,,,,,,,,,,,,,,,,,,,,,46.2,5.451
Cleyzieu,45.902,5.433,,,,,,,,,,,,,,,,,,,,,,,,,,,,,,,,,,,,45.902,5.433
Coligny,46.387,5.331,,,,,,,,,,,,,,,,,,,,,,,,,,,,,,,,,,,,46.387,5.331
Collonges,46.142,5.9,,,,,,,,,,,,,,,,,,,,,,,,,,,,,,,,,,,,46.142,5.9
Colomieu,45.736,5.627,,,,,,,,,,,,,,,,,,,,,,,,,,,,,,,,,,,,45.736,5.627
Conand,45.884,5.475,,,,,,,,,,,,,,,,,,,,,,,,,,,,,,,,,,,,45.884,5.475
Condamine,46.106,5.556,,,,,,,,,,,,,,,,,,,,,,,,,,,,,,,,,,,,46.106,5.556
Condeissiat,46.154,5.084,,,,,,,,,,,,,,,,,,,,,,,,,,,,,,,,,,,,46.154,5.084
Confort,46.154,5.833,,,,,,,,,,,,,,,,,,,,,,,,,,,,,,,,,,,,46.154,5.833
Confrançon,46.27,5.058,,,,,,,,,,,,,,,,,,,,,,,,,,,,,,,,,,,,46.27,5.058
Contrevoz,45.801,5.621,,,,,,,,,,,,,,,,,,,,,,,,,,,,,,,,,,,,45.801,5.621
Conzieu,45.725,5.604,,,,,,,,,,,,,,,,,,,,,,,,,,,,,,,,,,,,45.725,5.604
Corbonod,45.966,5.79,,,,,,,,,,,,,,,,,,,,,,,,,,,,,,,,,,,,45.966,5.79
Corlier,46.034,5.496,,,,,,,,,,,,,,,,,,,,,,,,,,,,,,,,,,,,46.034,5.496
Cormoranche-sur-Saône,46.24,4.828,,,,,,,,,,,,,,,,,,,,,,,,,,,,,,,,,,,,46.24,4.828
Cormoz,46.434,5.222,,,,,,,,,,,,,,,,,,,,,,,,,,,,,,,,,,,,46.434,5.222
Corveissiat,46.25,5.472,,,,,,,,,,,,,,,,,,,,,,,,,,,,,,,,,,,,46.25,5.472
Courmangoux,46.327,5.356,,,,,,,,,,,,,,,,,,,,,,,,,,,,,,,,,,,,46.327,5.356
Courtes,46.457,5.111,,,,,,,,,,,,,,,,,,,,,,,,,,,,,,,,,,,,46.457,5.111
Crans,45.966,5.195,,,,,,,,,,,,,,,,,,,,,,,,,,,,,,,,,,,,45.966,5.195
Bresse Vallons,46.313,5.178,,,,,,,,,,,,,,,,,,,,,,,,,,,,,,,,,,,,46.313,5.178
Cressin-Rochefort,45.783,5.766,,,,,,,,,,,,,,,,,,,,,,,,,,,,,,,,,,,,45.783,5.766
Crottet,46.283,4.878,,,,,,,,,,,,,,,,,,,,,,,,,,,,,,,,,,,,46.283,4.878
Crozet,46.292,5.995,,,,,,,,,,,,,,,,,,,,,,,,,,,,,,,,,,,,46.292,5.995
Cruzilles-lès-Mépillat,46.222,4.875,,,,,,,,,,,,,,,,,,,,,,,,,,,,,,,,,,,,46.222,4.875
Culoz-Béon,45.856,5.784,,,,,,,,,,,,,,,,,,,,,,,,,,,,,,,,,,,,45.856,5.784
Curciat-Dongalon,46.488,5.163,,,,,,,,,,,,,,,,,,,,,,,,,,,,,,,,,,,,46.488,5.163
Curtafond,46.273,5.102,,,,,,,,,,,,,,,,,,,,,,,,,,,,,,,,,,,,46.273,5.102
Cuzieu,45.82,5.677,,,,,,,,,,,,,,,,,,,,,,,,,,,,,,,,,,,,45.82,5.677
Dagneux,45.853,5.073,,,,,,,,,,,,,,,,,,,,,,,,,,,,,,,,,,,,45.853,5.073
Divonne-les-Bains,46.376,6.116,,,,,,,,,,,,,,,,,,,,,,,,,,,,,,,,,,,,46.376,6.116
Dompierre-sur-Veyle,46.067,5.217,,,,,,,,,,,,,,,,,,,,,,,,,,,,,,,,,,,,46.067,5.217
Dompierre-sur-Chalaronne,46.142,4.901,,,,,,,,,,,,,,,,,,,,,,,,,,,,,,,,,,,,46.142,4.901
Domsure,46.424,5.293,,,,,,,,,,,,,,,,,,,,,,,,,,,,,,,,,,,,46.424,5.293
Dortan,46.313,5.642,,,,,,,,,,,,,,,,,,,,,,,,,,,,,,,,,,,,46.313,5.642
Douvres,45.984,5.371,,,,,,,,,,,,,,,,,,,,,,,,,,,,,,,,,,,,45.984,5.371
Drom,46.22,5.368,,,,,,,,,,,,,,,,,,,,,,,,,,,,,,,,,,,,46.22,5.368
Druillat,46.068,5.294,,,,,,,,,,,,,,,,,,,,,,,,,,,,,,,,,,,,46.068,5.294
Échallon,46.227,5.733,,,,,,,,,,,,,,,,,,,,,,,,,,,,,,,,,,,,46.227,5.733
Échenevex,46.316,6.019,,,,,,,,,,,,,,,,,,,,,,,,,,,,,,,,,,,,46.316,6.019
Évosges,45.965,5.503,,,,,,,,,,,,,,,,,,,,,,,,,,,,,,,,,,,,45.965,5.503
Faramans,45.91,5.125,,,,,,,,,,,,,,,,,,,,,,,,,,,,,,,,,,,,45.91,5.125
Fareins,46.021,4.762,,,,,,,,,,,,,,,,,,,,,,,,,,,,,,,,,,,,46.021,4.762
Farges,46.166,5.9,,,,,,,,,,,,,,,,,,,,,,,,,,,,,,,,,,,,46.166,5.9
Feillens,46.337,4.885,,,,,,,,,,,,,,,,,,,,,,,,,,,,,,,,,,,,46.337,4.885
Ferney-Voltaire,46.252,6.108,,,,,,,,,,,,,,,,,,,,,,,,,,,,,,,,,,,,46.252,6.108
Flaxieu,45.811,5.745,,,,,,,,,,,,,,,,,,,,,,,,,,,,,,,,,,,,45.811,5.745
Foissiat,46.378,5.185,,,,,,,,,,,,,,,,,,,,,,,,,,,,,,,,,,,,46.378,5.185
Francheleins,46.074,4.813,,,,,,,,,,,,,,,,,,,,,,,,,,,,,,,,,,,,46.074,4.813
Frans,45.994,4.78,,,,,,,,,,,,,,,,,,,,,,,,,,,,,,,,,,,,45.994,4.78
Garnerans,46.214,4.828,,,,,,,,,,,,,,,,,,,,,,,,,,,,,,,,,,,,46.214,4.828
Genouilleux,46.12,4.793,,,,,,,,,,,,,,,,,,,,,,,,,,,,,,,,,,,,46.12,4.793
Béard-Géovreissiat,46.19,5.551,,,,,,,,,,,,,,,,,,,,,,,,,,,,,,,,,,,,46.19,5.551
Géovreisset,46.251,5.613,,,,,,,,,,,,,,,,,,,,,,,,,,,,,,,,,,,,46.251,5.613
Gex,46.347,6.046,,,,,,,,,,,,,,,,,,,,,,,,,,,,,,,,,,,,46.347,6.046
Giron,46.223,5.78,,,,,,,,,,,,,,,,,,,,,,,,,,,,,,,,,,,,46.223,5.78
Gorrevod,46.415,4.951,,,,,,,,,,,,,,,,,,,,,,,,,,,,,,,,,,,,46.415,4.951
Grand-Corent,46.207,5.433,,,,,,,,,,,,,,,,,,,,,,,,,,,,,,,,,,,,46.207,5.433
Grièges,46.263,4.846,,,,,,,,,,,,,,,,,,,,,,,,,,,,,,,,,,,,46.263,4.846
Grilly,46.332,6.114,,,,,,,,,,,,,,,,,,,,,,,,,,,,,,,,,,,,46.332,6.114
Groissiat,46.226,5.611,,,,,,,,,,,,,,,,,,,,,,,,,,,,,,,,,,,,46.226,5.611
Guéreins,46.107,4.782,,,,,,,,,,,,,,,,,,,,,,,,,,,,,,,,,,,,46.107,4.782
Hautecourt-Romanèche,46.161,5.429,,,,,,,,,,,,,,,,,,,,,,,,,,,,,,,,,,,,46.161,5.429
Plateau d'Hauteville,45.97,5.576,,,,,,,,,,,,,,,,,,,,,,,,,,,,,,,,,,,,45.97,5.576
Haut Valromey,46.032,5.703,,,,,,,,,,,,,,,,,,,,,,,,,,,,,,,,,,,,46.032,5.703
Illiat,46.187,4.888,,,,,,,,,,,,,,,,,,,,,,,,,,,,,,,,,,,,46.187,4.888
Injoux-Génissiat,46.05,5.76,,,,,,,,,,,,,,,,,,,,,,,,,,,,,,,,,,,,46.05,5.76
Innimond,45.792,5.574,,,,,,,,,,,,,,,,,,,,,,,,,,,,,,,,,,,,45.792,5.574
Izenave,46.038,5.524,,,,,,,,,,,,,,,,,,,,,,,,,,,,,,,,,,,,46.038,5.524
Izernore,46.218,5.563,,,,,,,,,,,,,,,,,,,,,,,,,,,,,,,,,,,,46.218,5.563
Izieu,45.656,5.639,,,,,,,,,,,,,,,,,,,,,,,,,,,,,,,,,,,,45.656,5.639
Jassans-Riottier,45.978,4.76,,,,,,,,,,,,,,,,,,,,,,,,,,,,,,,,,,,,45.978,4.76
Jasseron,46.215,5.312,,,,,,,,,,,,,,,,,,,,,,,,,,,,,,,,,,,,46.215,5.312
Jayat,46.366,5.114,,,,,,,,,,,,,,,,,,,,,,,,,,,,,,,,,,,,46.366,5.114
Journans,46.146,5.334,,,,,,,,,,,,,,,,,,,,,,,,,,,,,,,,,,,,46.146,5.334
Joyeux,45.95,5.103,,,,,,,,,,,,,,,,,,,,,,,,,,,,,,,,,,,,45.95,5.103
Jujurieux,46.05,5.411,,,,,,,,,,,,,,,,,,,,,,,,,,,,,,,,,,,,46.05,5.411
Labalme,46.093,5.494,,,,,,,,,,,,,,,,,,,,,,,,,,,,,,,,,,,,46.093,5.494
Lagnieu,45.892,5.329,,,,,,,,,,,,,,,,,,,,,,,,,,,,,,,,,,,,45.892,5.329
Laiz,46.247,4.899,,,,,,,,,,,,,,,,,,,,,,,,,,,,,,,,,,,,46.247,4.899
Le Poizat-Lalleyriat,46.148,5.718,,,,,,,,,,,,,,,,,,,,,,,,,,,,,,,,,,,,46.148,5.718
Lantenay,46.054,5.541,,,,,,,,,,,,,,,,,,,,,,,,,,,,,,,,,,,,46.054,5.541
Lapeyrouse,45.986,4.982,,,,,,,,,,,,,,,,,,,,,,,,,,,,,,,,,,,,45.986,4.982
Lavours,45.811,5.773,,,,,,,,,,,,,,,,,,,,,,,,,,,,,,,,,,,,45.811,5.773
Léaz,46.109,5.876,,,,,,,,,,,,,,,,,,,,,,,,,,,,,,,,,,,,46.109,5.876
Lélex,46.286,5.929,,,,,,,,,,,,,,,,,,,,,,,,,,,,,,,,,,,,46.286,5.929
Lent,46.116,5.202,,,,,,,,,,,,,,,,,,,,,,,,,,,,,,,,,,,,46.116,5.202
Lescheroux,46.412,5.151,,,,,,,,,,,,,,,,,,,,,,,,,,,,,,,,,,,,46.412,5.151
Leyment,45.927,5.295,,,,,,,,,,,,,,,,,,,,,,,,,,,,,,,,,,,,45.927,5.295
Leyssard,46.162,5.476,,,,,,,,,,,,,,,,,,,,,,,,,,,,,,,,,,,,46.162,5.476
Surjoux-Lhopital,46.024,5.762,,,,,,,,,,,,,,,,,,,,,,,,,,,,,,,,,,,,46.024,5.762
Lhuis,45.744,5.536,,,,,,,,,,,,,,,,,,,,,,,,,,,,,,,,,,,,45.744,5.536
Lompnas,45.811,5.523,,,,,,,,,,,,,,,,,,,,,,,,,,,,,,,,,,,,45.811,5.523
Loyettes,45.792,5.218,,,,,,,,,,,,,,,,,,,,,,,,,,,,,,,,,,,,45.792,5.218
Lurcy,46.062,4.781,,,,,,,,,,,,,,,,,,,,,,,,,,,,,,,,,,,,46.062,4.781
Magnieu,45.775,5.715,,,,,,,,,,,,,,,,,,,,,,,,,,,,,,,,,,,,45.775,5.715
Maillat,46.12,5.528,,,,,,,,,,,,,,,,,,,,,,,,,,,,,,,,,,,,46.12,5.528
Malafretaz,46.33,5.144,,,,,,,,,,,,,,,,,,,,,,,,,,,,,,,,,,,,46.33,5.144
Mantenay-Montlin,46.43,5.107,,,,,,,,,,,,,,,,,,,,,,,,,,,,,,,,,,,,46.43,5.107
Manziat,46.364,4.902,,,,,,,,,,,,,,,,,,,,,,,,,,,,,,,,,,,,46.364,4.902
Marboz,46.343,5.244,,,,,,,,,,,,,,,,,,,,,,,,,,,,,,,,,,,,46.343,5.244
Marchamp,45.774,5.55,,,,,,,,,,,,,,,,,,,,,,,,,,,,,,,,,,,,45.774,5.55
Marignieu,45.801,5.716,,,,,,,,,,,,,,,,,,,,,,,,,,,,,,,,,,,,45.801,5.716
Marlieux,46.055,5.074,,,,,,,,,,,,,,,,,,,,,,,,,,,,,,,,,,,,46.055,5.074
Marsonnas,46.341,5.064,,,,,,,,,,,,,,,,,,,,,,,,,,,,,,,,,,,,46.341,5.064
Martignat,46.203,5.614,,,,,,,,,,,,,,,,,,,,,,,,,,,,,,,,,,,,46.203,5.614
Massieux,45.909,4.828,,,,,,,,,,,,,,,,,,,,,,,,,,,,,,,,,,,,45.909,4.828
Massignieu-de-Rives,45.757,5.762,,,,,,,,,,,,,,,,,,,,,,,,,,,,,,,,,,,,45.757,5.762
Matafelon-Granges,46.256,5.54,,,,,,,,,,,,,,,,,,,,,,,,,,,,,,,,,,,,46.256,5.54
Meillonnas,46.245,5.336,,,,,,,,,,,,,,,,,,,,,,,,,,,,,,,,,,,,46.245,5.336
Mérignat,46.065,5.442,,,,,,,,,,,,,,,,,,,,,,,,,,,,,,,,,,,,46.065,5.442
Messimy-sur-Saône,46.047,4.759,,,,,,,,,,,,,,,,,,,,,,,,,,,,,,,,,,,,46.047,4.759
Meximieux,45.906,5.204,,,,,,,,,,,,,,,,,,,,,,,,,,,,,,,,,,,,45.906,5.204
Bohas-Meyriat-Rignat,46.143,5.378,,,,,,,,,,,,,,,,,,,,,,,,,,,,,,,,,,,,46.143,5.378
Mézériat,46.242,5.047,,,,,,,,,,,,,,,,,,,,,,,,,,,,,,,,,,,,46.242,5.047
Mijoux,46.362,6.009,,,,,,,,,,,,,,,,,,,,,,,,,,,,,,,,,,,,46.362,6.009
Mionnay,45.896,4.924,,,,,,,,,,,,,,,,,,,,,,,,,,,,,,,,,,,,45.896,4.924
Miribel,45.844,4.941,,,,,,,,,,,,,,,,,,,,,,,,,,,,,,,,,,,,45.844,4.941
Misérieux,45.976,4.81,,,,,,,,,,,,,,,,,,,,,,,,,,,,,,,,,,,,45.976,4.81
Mogneneins,46.145,4.82,,,,,,,,,,,,,,,,,,,,,,,,,,,,,,,,,,,,46.145,4.82
Montagnat,46.169,5.28,,,,,,,,,,,,,,,,,,,,,,,,,,,,,,,,,,,,46.169,5.28
Montagnieu,45.799,5.464,,,,,,,,,,,,,,,,,,,,,,,,,,,,,,,,,,,,45.799,5.464
Montanges,46.173,5.79,,,,,,,,,,,,,,,,,,,,,,,,,,,,,,,,,,,,46.173,5.79
Montceaux,46.096,4.804,,,,,,,,,,,,,,,,,,,,,,,,,,,,,,,,,,,,46.096,4.804
Montcet,46.219,5.112,,,,,,,,,,,,,,,,,,,,,,,,,,,,,,,,,,,,46.219,5.112
Le Montellier,45.929,5.071,,,,,,,,,,,,,,,,,,,,,,,,,,,,,,,,,,,,45.929,5.071
Monthieux,45.962,4.946,,,,,,,,,,,,,,,,,,,,,,,,,,,,,,,,,,,,45.962,4.946
Montluel,45.891,5.02,,,,,,,,,,,,,,,,,,,,,,,,,,,,,,,,,,,,45.891,5.02
Montmerle-sur-Saône,46.085,4.761,,,,,,,,,,,,,,,,,,,,,,,,,,,,,,,,,,,,46.085,4.761
Montracol,46.187,5.117,,,,,,,,,,,,,,,,,,,,,,,,,,,,,,,,,,,,46.187,5.117
Montréal-la-Cluse,46.18,5.595,,,,,,,,,,,,,,,,,,,,,,,,,,,,,,,,,,,,46.18,5.595
Montrevel-en-Bresse,46.325,5.113,,,,,,,,,,,,,,,,,,,,,,,,,,,,,,,,,,,,46.325,5.113
Nurieux-Volognat,46.183,5.514,,,,,,,,,,,,,,,,,,,,,,,,,,,,,,,,,,,,46.183,5.514
Murs-et-Gélignieux,45.642,5.66,,,,,,,,,,,,,,,,,,,,,,,,,,,,,,,,,,,,45.642,5.66
Nantua,46.154,5.614,,,,,,,,,,,,,,,,,,,,,,,,,,,,,,,,,,,,46.154,5.614
Neuville-les-Dames,46.157,5.009,,,,,,,,,,,,,,,,,,,,,,,,,,,,,,,,,,,,46.157,5.009
Neuville-sur-Ain,46.091,5.374,,,,,,,,,,,,,,,,,,,,,,,,,,,,,,,,,,,,46.091,5.374
Les Neyrolles,46.134,5.637,,,,,,,,,,,,,,,,,,,,,,,,,,,,,,,,,,,,46.134,5.637
Neyron,45.818,4.931,,,,,,,,,,,,,,,,,,,,,,,,,,,,,,,,,,,,45.818,4.931
Niévroz,45.822,5.06,,,,,,,,,,,,,,,,,,,,,,,,,,,,,,,,,,,,45.822,5.06
Nivollet-Montgriffon,46.0,5.458,,,,,,,,,,,,,,,,,,,,,,,,,,,,,,,,,,,,46.0,5.458
Oncieu,45.965,5.472,,,,,,,,,,,,,,,,,,,,,,,,,,,,,,,,,,,,45.965,5.472
Ordonnaz,45.834,5.54,,,,,,,,,,,,,,,,,,,,,,,,,,,,,,,,,,,,45.834,5.54
Ornex,46.278,6.094,,,,,,,,,,,,,,,,,,,,,,,,,,,,,,,,,,,,46.278,6.094
Outriaz,46.068,5.557,,,,,,,,,,,,,,,,,,,,,,,,,,,,,,,,,,,,46.068,5.557
Oyonnax,46.26,5.653,,,,,,,,,,,,,,,,,,,,,,,,,,,,,,,,,,,,46.26,5.653
Ozan,46.387,4.918,,,,,,,,,,,,,,,,,,,,,,,,,,,,,,,,,,,,46.387,4.918
Parcieux,45.918,4.828,,,,,,,,,,,,,,,,,,,,,,,,,,,,,,,,,,,,45.918,4.828
Parves et Nattages,45.744,5.738,,,,,,,,,,,,,,,,,,,,,,,,,,,,,,,,,,,,45.744,5.738
Péron,46.191,5.92,,,,,,,,,,,,,,,,,,,,,,,,,,,,,,,,,,,,46.191,5.92
Péronnas,46.171,5.218,,,,,,,,,,,,,,,,,,,,,,,,,,,,,,,,,,,,46.171,5.218
Pérouges,45.88,5.18,,,,,,,,,,,,,,,,,,,,,,,,,,,,,,,,,,,,45.88,5.18
Perrex,46.246,4.975,,,,,,,,,,,,,,,,,,,,,,,,,,,,,,,,,,,,46.246,4.975
Peyriat,46.15,5.506,,,,,,,,,,,,,,,,,,,,,,,,,,,,,,,,,,,,46.15,5.506
Peyrieu,45.676,5.679,,,,,,,,,,,,,,,,,,,,,,,,,,,,,,,,,,,,45.676,5.679
Peyzieux-sur-Saône,46.123,4.822,,,,,,,,,,,,,,,,,,,,,,,,,,,,,,,,,,,,46.123,4.822
Pirajoux,46.386,5.274,,,,,,,,,,,,,,,,,,,,,,,,,,,,,,,,,,,,46.386,5.274
Pizay,45.893,5.089,,,,,,,,,,,,,,,,,,,,,,,,,,,,,,,,,,,,45.893,5.089
Plagne,46.188,5.718,,,,,,,,,,,,,,,,,,,,,,,,,,,,,,,,,,,,46.188,5.718
Le Plantay,46.023,5.089,,,,,,,,,,,,,,,,,,,,,,,,,,,,,,,,,,,,46.023,5.089
Polliat,46.246,5.138,,,,,,,,,,,,,,,,,,,,,,,,,,,,,,,,,,,,46.246,5.138
Pollieu,45.796,5.748,,,,,,,,,,,,,,,,,,,,,,,,,,,,,,,,,,,,45.796,5.748
Poncin,46.09,5.417,,,,,,,,,,,,,,,,,,,,,,,,,,,,,,,,,,,,46.09,5.417
Pont-d'Ain,46.054,5.347,,,,,,,,,,,,,,,,,,,,,,,,,,,,,,,,,,,,46.054,5.347
Pont-de-Vaux,46.442,4.929,,,,,,,,,,,,,,,,,,,,,,,,,,,,,,,,,,,,46.442,4.929
Pont-de-Veyle,46.264,4.882,,,,,,,,,,,,,,,,,,,,,,,,,,,,,,,,,,,,46.264,4.882
Port,46.156,5.576,,,,,,,,,,,,,,,,,,,,,,,,,,,,,,,,,,,,46.156,5.576
Pougny,46.145,5.951,,,,,,,,,,,,,,,,,,,,,,,,,,,,,,,,,,,,46.145,5.951
Pouillat,46.322,5.423,,,,,,,,,,,,,,,,,,,,,,,,,,,,,,,,,,,,46.322,5.423
Prémeyzel,45.681,5.644,,,,,,,,,,,,,,,,,,,,,,,,,,,,,,,,,,,,45.681,5.644
Prémillieu,45.876,5.565,,,,,,,,,,,,,,,,,,,,,,,,,,,,,,,,,,,,45.876,5.565
Prévessin-Moëns,46.258,6.072,,,,,,,,,,,,,,,,,,,,,,,,,,,,,,,,,,,,46.258,6.072
Priay,46.02,5.285,,,,,,,,,,,,,,,,,,,,,,,,,,,,,,,,,,,,46.02,5.285
Ramasse,46.191,5.356,,,,,,,,,,,,,,,,,,,,,,,,,,,,,,,,,,,,46.191,5.356
Rancé,45.967,4.863,,,,,,,,,,,,,,,,,,,,,,,,,,,,,,,,,,,,45.967,4.863
Relevant,46.084,4.942,,,,,,,,,,,,,,,,,,,,,,,,,,,,,,,,,,,,46.084,4.942
Replonges,46.308,4.875,,,,,,,,,,,,,,,,,,,,,,,,,,,,,,,,,,,,46.308,4.875
Revonnas,46.162,5.335,,,,,,,,,,,,,,,,,,,,,,,,,,,,,,,,,,,,46.162,5.335
Reyrieux,45.937,4.828,,,,,,,,,,,,,,,,,,,,,,,,,,,,,,,,,,,,45.937,4.828
Reyssouze,46.429,4.913,,,,,,,,,,,,,,,,,,,,,,,,,,,,,,,,,,,,46.429,4.913
Rignieux-le-Franc,45.952,5.169,,,,,,,,,,,,,,,,,,,,,,,,,,,,,,,,,,,,45.952,5.169
Romans,46.124,5.022,,,,,,,,,,,,,,,,,,,,,,,,,,,,,,,,,,,,46.124,5.022
Rossillon,45.836,5.599,,,,,,,,,,,,,,,,,,,,,,,,,,,,,,,,,,,,45.836,5.599
Ruffieu,46.004,5.653,,,,,,,,,,,,,,,,,,,,,,,,,,,,,,,,,,,,46.004,5.653
Saint-Alban,46.098,5.456,,,,,,,,,,,,,,,,,,,,,,,,,,,,,,,,,,,,46.098,5.456
Saint-André-de-Bâgé,46.298,4.914,,,,,,,,,,,,,,,,,,,,,,,,,,,,,,,,,,,,46.298,4.914
Saint-André-de-Corcy,45.927,4.954,,,,,,,,,,,,,,,,,,,,,,,,,,,,,,,,,,,,45.927,4.954
Saint-André-d'Huiriat,46.214,4.913,,,,,,,,,,,,,,,,,,,,,,,,,,,,,,,,,,,,46.214,4.913
Saint-André-le-Bouchoux,46.113,5.08,,,,,,,,,,,,,,,,,,,,,,,,,,,,,,,,,,,,46.113,5.08
Saint-André-sur-Vieux-Jonc,46.149,5.142,,,,,,,,,,,,,,,,,,,,,,,,,,,,,,,,,,,,46.149,5.142
Saint-Bénigne,46.452,4.953,,,,,,,,,,,,,,,,,,,,,,,,,,,,,,,,,,,,46.452,4.953
Groslée-Saint-Benoit,45.689,5.584,,,,,,,,,,,,,,,,,,,,,,,,,,,,,,,,,,,,45.689,5.584
Saint-Bernard,45.949,4.743,,,,,,,,,,,,,,,,,,,,,,,,,,,,,,,,,,,,45.949,4.743
Sainte-Croix,45.896,5.049,,,,,,,,,,,,,,,,,,,,,,,,,,,,,,,,,,,,45.896,5.049
Saint-Cyr-sur-Menthon,46.275,4.968,,,,,,,,,,,,,,,,,,,,,,,,,,,,,,,,,,,,46.275,4.968
Saint-Denis-lès-Bourg,46.211,5.185,,,,,,,,,,,,,,,,,,,,,,,,,,,,,,,,,,,,46.211,5.185
Saint-Denis-en-Bugey,45.949,5.324,,,,,,,,,,,,,,,,,,,,,,,,,,,,,,,,,,,,45.949,5.324
Saint-Didier-d'Aussiat,46.307,5.058,,,,,,,,,,,,,,,,,,,,,,,,,,,,,,,,,,,,46.307,5.058
Saint-Didier-de-Formans,45.956,4.778,,,,,,,,,,,,,,,,,,,,,,,,,,,,,,,,,,,,45.956,4.778
Saint-Didier-sur-Chalaronne,46.184,4.816,,,,,,,,,,,,,,,,,,,,,,,,,,,,,,,,,,,,46.184,4.816
Saint-Éloi,45.932,5.152,,,,,,,,,,,,,,,,,,,,,,,,,,,,,,,,,,,,45.932,5.152
Saint-Étienne-du-Bois,46.275,5.284,,,,,,,,,,,,,,,,,,,,,,,,,,,,,,,,,,,,46.275,5.284
Saint-Étienne-sur-Chalaronne,46.147,4.867,,,,,,,,,,,,,,,,,,,,,,,,,,,,,,,,,,,,46.147,4.867
Saint-Étienne-sur-Reyssouze,46.403,5.006,,,,,,,,,,,,,,,,,,,,,,,,,,,,,,,,,,,,46.403,5.006
Sainte-Euphémie,45.967,4.795,,,,,,,,,,,,,,,,,,,,,,,,,,,,,,,,,,,,45.967,4.795
Saint-Genis-Pouilly,46.254,6.036,,,,,,,,,,,,,,,,,,,,,,,,,,,,,,,,,,,,46.254,6.036
Saint-Genis-sur-Menthon,46.282,5.013,,,,,,,,,,,,,,,,,,,,,,,,,,,,,,,,,,,,46.282,5.013
Saint-Georges-sur-Renon,46.104,5.03,,,,,,,,,,,,,,,,,,,,,,,,,,,,,,,,,,,,46.104,5.03
Saint-Germain-de-Joux,46.182,5.747,,,,,,,,,,,,,,,,,,,,,,,,,,,,,,,,,,,,46.182,5.747
Saint-Germain-les-Paroisses,45.771,5.618,,,,,,,,,,,,,,,,,,,,,,,,,,,,,,,,,,,,45.771,5.618
Saint-Germain-sur-Renon,46.08,5.061,,,,,,,,,,,,,,,,,,,,,,,,,,,,,,,,,,,,46.08,5.061
Saint-Jean-de-Gonville,46.218,5.942,,,,,,,,,,,,,,,,,,,,,,,,,,,,,,,,,,,,46.218,5.942
Saint-Jean-de-Niost,45.84,5.212,,,,,,,,,,,,,,,,,,,,,,,,,,,,,,,,,,,,45.84,5.212
Saint-Jean-de-Thurigneux,45.96,4.899,,,,,,,,,,,,,,,,,,,,,,,,,,,,,,,,,,,,45.96,4.899
Saint-Jean-le-Vieux,46.029,5.382,,,,,,,,,,,,,,,,,,,,,,,,,,,,,,,,,,,,46.029,5.382
Saint-Jean-sur-Reyssouze,46.397,5.063,,,,,,,,,,,,,,,,,,,,,,,,,,,,,,,,,,,,46.397,5.063
Saint-Jean-sur-Veyle,46.268,4.922,,,,,,,,,,,,,,,,,,,,,,,,,,,,,,,,,,,,46.268,4.922
Sainte-Julie,45.882,5.284,,,,,,,,,,,,,,,,,,,,,,,,,,,,,,,,,,,,45.882,5.284
Saint-Julien-sur-Reyssouze,46.4,5.104,,,,,,,,,,,,,,,,,,,,,,,,,,,,,,,,,,,,46.4,5.104
Saint-Julien-sur-Veyle,46.202,4.959,,,,,,,,,,,,,,,,,,,,,,,,,,,,,,,,,,,,46.202,4.959
Saint-Just,46.193,5.285,,,,,,,,,,,,,,,,,,,,,,,,,,,,,,,,,,,,46.193,5.285
Saint-Laurent-sur-Saône,46.305,4.84,,,,,,,,,,,,,,,,,,,,,,,,,,,,,,,,,,,,46.305,4.84
Saint-Marcel,45.949,4.99,,,,,,,,,,,,,,,,,,,,,,,,,,,,,,,,,,,,45.949,4.99
Saint-Martin-de-Bavel,45.848,5.679,,,,,,,,,,,,,,,,,,,,,,,,,,,,,,,,,,,,45.848,5.679
Saint-Martin-du-Frêne,46.136,5.571,,,,,,,,,,,,,,,,,,,,,,,,,,,,,,,,,,,,46.136,5.571
Saint-Martin-du-Mont,46.106,5.326,,,,,,,,,,,,,,,,,,,,,,,,,,,,,,,,,,,,46.106,5.326
Saint-Martin-le-Châtel,46.291,5.123,,,,,,,,,,,,,,,,,,,,,,,,,,,,,,,,,,,,46.291,5.123
Saint-Maurice-de-Beynost,45.834,4.977,,,,,,,,,,,,,,,,,,,,,,,,,,,,,,,,,,,,45.834,4.977
Saint-Maurice-de-Gourdans,45.82,5.17,,,,,,,,,,,,,,,,,,,,,,,,,,,,,,,,,,,,45.82,5.17
Saint-Maurice-de-Rémens,45.953,5.271,,,,,,,,,,,,,,,,,,,,,,,,,,,,,,,,,,,,45.953,5.271
Saint-Nizier-le-Bouchoux,46.453,5.176,,,,,,,,,,,,,,,,,,,,,,,,,,,,,,,,,,,,46.453,5.176
Saint-Nizier-le-Désert,46.053,5.142,,,,,,,,,,,,,,,,,,,,,,,,,,,,,,,,,,,,46.053,5.142
Sainte-Olive,46.014,4.936,,,,,,,,,,,,,,,,,,,,,,,,,,,,,,,,,,,,46.014,4.936
Saint-Paul-de-Varax,46.096,5.128,,,,,,,,,,,,,,,,,,,,,,,,,,,,,,,,,,,,46.096,5.128
Saint-Rambert-en-Bugey,45.95,5.44,,,,,,,,,,,,,,,,,,,,,,,,,,,,,,,,,,,,45.95,5.44
Saint-Rémy,46.185,5.168,,,,,,,,,,,,,,,,,,,,,,,,,,,,,,,,,,,,46.185,5.168
Saint-Sorlin-en-Bugey,45.886,5.376,,,,,,,,,,,,,,,,,,,,,,,,,,,,,,,,,,,,45.886,5.376
Saint-Sulpice,46.321,5.042,,,,,,,,,,,,,,,,,,,,,,,,,,,,,,,,,,,,46.321,5.042
Saint-Trivier-de-Courtes,46.461,5.067,,,,,,,,,,,,,,,,,,,,,,,,,,,,,,,,,,,,46.461,5.067
Saint-Trivier-sur-Moignans,46.062,4.902,,,,,,,,,,,,,,,,,,,,,,,,,,,,,,,,,,,,46.062,4.902
Saint-Vulbas,45.822,5.27,,,,,,,,,,,,,,,,,,,,,,,,,,,,,,,,,,,,45.822,5.27
Salavre,46.364,5.347,,,,,,,,,,,,,,,,,,,,,,,,,,,,,,,,,,,,46.364,5.347
Samognat,46.265,5.586,,,,,,,,,,,,,,,,,,,,,,,,,,,,,,,,,,,,46.265,5.586
Sandrans,46.066,4.983,,,,,,,,,,,,,,,,,,,,,,,,,,,,,,,,,,,,46.066,4.983
Sault-Brénaz,45.865,5.404,,,,,,,,,,,,,,,,,,,,,,,,,,,,,,,,,,,,45.865,5.404
Sauverny,46.313,6.11,,,,,,,,,,,,,,,,,,,,,,,,,,,,,,,,,,,,46.313,6.11
Savigneux,45.997,4.858,,,,,,,,,,,,,,,,,,,,,,,,,,,,,,,,,,,,45.997,4.858
Ségny,46.294,6.073,,,,,,,,,,,,,,,,,,,,,,,,,,,,,,,,,,,,46.294,6.073
Seillonnaz,45.798,5.498,,,,,,,,,,,,,,,,,,,,,,,,,,,,,,,,,,,,45.798,5.498
Sergy,46.263,5.989,,,,,,,,,,,,,,,,,,,,,,,,,,,,,,,,,,,,46.263,5.989
Sermoyer,46.498,4.979,,,,,,,,,,,,,,,,,,,,,,,,,,,,,,,,,,,,46.498,4.979
Serrières-de-Briord,45.813,5.441,,,,,,,,,,,,,,,,,,,,,,,,,,,,,,,,,,,,45.813,5.441
Serrières-sur-Ain,46.147,5.45,,,,,,,,,,,,,,,,,,,,,,,,,,,,,,,,,,,,46.147,5.45
Servas,46.139,5.179,,,,,,,,,,,,,,,,,,,,,,,,,,,,,,,,,,,,46.139,5.179
Servignat,46.435,5.056,,,,,,,,,,,,,,,,,,,,,,,,,,,,,,,,,,,,46.435,5.056
Seyssel,45.948,5.826,,,,,,,,,,,,,,,,,,,,,,,,,,,,,,,,,,,,45.948,5.826
Simandre-sur-Suran,46.234,5.422,,,,,,,,,,,,,,,,,,,,,,,,,,,,,,,,,,,,46.234,5.422
Sonthonnax-la-Montagne,46.223,5.506,,,,,,,,,,,,,,,,,,,,,,,,,,,,,,,,,,,,46.223,5.506
Souclin,45.878,5.431,,,,,,,,,,,,,,,,,,,,,,,,,,,,,,,,,,,,45.878,5.431
Sulignat,46.174,4.958,,,,,,,,,,,,,,,,,,,,,,,,,,,,,,,,,,,,46.174,4.958
Talissieu,45.864,5.721,,,,,,,,,,,,,,,,,,,,,,,,,,,,,,,,,,,,45.864,5.721
Tenay,45.923,5.514,,,,,,,,,,,,,,,,,,,,,,,,,,,,,,,,,,,,45.923,5.514
Thil,45.817,5.018,,,,,,,,,,,,,,,,,,,,,,,,,,,,,,,,,,,,45.817,5.018
Thoiry,46.244,5.965,,,,,,,,,,,,,,,,,,,,,,,,,,,,,,,,,,,,46.244,5.965
Thoissey,46.17,4.794,,,,,,,,,,,,,,,,,,,,,,,,,,,,,,,,,,,,46.17,4.794
Torcieu,45.921,5.404,,,,,,,,,,,,,,,,,,,,,,,,,,,,,,,,,,,,45.921,5.404
Tossiat,46.138,5.304,,,,,,,,,,,,,,,,,,,,,,,,,,,,,,,,,,,,46.138,5.304
Toussieux,45.96,4.829,,,,,,,,,,,,,,,,,,,,,,,,,,,,,,,,,,,,45.96,4.829
Tramoyes,45.875,4.964,,,,,,,,,,,,,,,,,,,,,,,,,,,,,,,,,,,,45.875,4.964
La Tranclière,46.097,5.261,,,,,,,,,,,,,,,,,,,,,,,,,,,,,,,,,,,,46.097,5.261
Val-Revermont,46.28,5.361,,,,,,,,,,,,,,,,,,,,,,,,,,,,,,,,,,,,46.28,5.361
Trévoux,45.941,4.771,,,,,,,,,,,,,,,,,,,,,,,,,,,,,,,,,,,,45.941,4.771
Valeins,46.115,4.866,,,,,,,,,,,,,,,,,,,,,,,,,,,,,,,,,,,,46.115,4.866
Vandeins,46.218,5.082,,,,,,,,,,,,,,,,,,,,,,,,,,,,,,,,,,,,46.218,5.082
Varambon,46.043,5.295,,,,,,,,,,,,,,,,,,,,,,,,,,,,,,,,,,,,46.043,5.295
Vaux-en-Bugey,45.92,5.364,,,,,,,,,,,,,,,,,,,,,,,,,,,,,,,,,,,,45.92,5.364
Verjon,46.346,5.348,,,,,,,,,,,,,,,,,,,,,,,,,,,,,,,,,,,,46.346,5.348
Vernoux,46.485,5.106,,,,,,,,,,,,,,,,,,,,,,,,,,,,,,,,,,,,46.485,5.106
Versailleux,45.985,5.112,,,,,,,,,,,,,,,,,,,,,,,,,,,,,,,,,,,,45.985,5.112
Versonnex,46.3,6.101,,,,,,,,,,,,,,,,,,,,,,,,,,,,,,,,,,,,46.3,6.101
Vesancy,46.361,6.085,,,,,,,,,,,,,,,,,,,,,,,,,,,,,,,,,,,,46.361,6.085
Vescours,46.474,5.026,,,,,,,,,,,,,,,,,,,,,,,,,,,,,,,,,,,,46.474,5.026
Vésines,46.359,4.863,,,,,,,,,,,,,,,,,,,,,,,,,,,,,,,,,,,,46.359,4.863
Vieu-d'Izenave,46.085,5.549,,,,,,,,,,,,,,,,,,,,,,,,,,,,,,,,,,,,46.085,5.549
Villars-les-Dombes,45.993,5.045,,,,,,,,,,,,,,,,,,,,,,,,,,,,,,,,,,,,45.993,5.045
Villebois,45.849,5.447,,,,,,,,,,,,,,,,,,,,,,,,,,,,,,,,,,,,45.849,5.447
Villemotier,46.346,5.31,,,,,,,,,,,,,,,,,,,,,,,,,,,,,,,,,,,,46.346,5.31
Villeneuve,46.032,4.852,,,,,,,,,,,,,,,,,,,,,,,,,,,,,,,,,,,,46.032,4.852
Villereversure,46.193,5.395,,,,,,,,,,,,,,,,,,,,,,,,,,,,,,,,,,,,46.193,5.395
Villes,46.095,5.757,,,,,,,,,,,,,,,,,,,,,,,,,,,,,,,,,,,,46.095,5.757
Villette-sur-Ain,46.01,5.252,,,,,,,,,,,,,,,,,,,,,,,,,,,,,,,,,,,,46.01,5.252
Villieu-Loyes-Mollon,45.932,5.23,,,,,,,,,,,,,,,,,,,,,,,,,,,,,,,,,,,,45.932,5.23
Viriat,46.251,5.223,,,,,,,,,,,,,,,,,,,,,,,,,,,,,,,,,,,,46.251,5.223
Virieu-le-Grand,45.846,5.64,,,,,,,,,,,,,,,,,,,,,,,,,,,,,,,,,,,,45.846,5.64
Arvière-en-Valromey,45.906,5.737,,,,,,,,,,,,,,,,,,,,,,,,,,,,,,,,,,,,45.906,5.737
Virignin,45.727,5.713,,,,,,,,,,,,,,,,,,,,,,,,,,,,,,,,,,,,45.727,5.713
Vongnes,45.813,5.725,,,,,,,,,,,,,,,,,,,,,,,,,,,,,,,,,,,,45.813,5.725
Vonnas,46.217,4.997,,,,,,,,,,,,,,,,,,,,,,,,,,,,,,,,,,,,46.217,4.997
Abbécourt,49.599,3.177,,,,,,,,,,,,,,,,,,,,,,,,,,,,,,,,,,,,49.599,3.177
Achery,49.694,3.397,,,,,,,,,,,,,,,,,,,,,,,,,,,,,,,,,,,,49.694,3.397
Acy,49.347,3.418,,,,,,,,,,,,,,,,,,,,,,,,,,,,,,,,,,,,49.347,3.418
Agnicourt-et-Séchelles,49.717,3.96,,,,,,,,,,,,,,,,,,,,,,,,,,,,,,,,,,,,49.717,3.96
Aguilcourt,49.394,3.968,,,,,,,,,,,,,,,,,,,,,,,,,,,,,,,,,,,,49.394,3.968
Aisonville-et-Bernoville,49.93,3.511,,,,,,,,,,,,,,,,,,,,,,,,,,,,,,,,,,,,49.93,3.511
Aizelles,49.485,3.819,,,,,,,,,,,,,,,,,,,,,,,,,,,,,,,,,,,,49.485,3.819
Aizy-Jouy,49.438,3.512,,,,,,,,,,,,,,,,,,,,,,,,,,,,,,,,,,,,49.438,3.512
Alaincourt,49.767,3.366,,,,,,,,,,,,,,,,,,,,,,,,,,,,,,,,,,,,49.767,3.366
Allemant,49.462,3.454,,,,,,,,,,,,,,,,,,,,,,,,,,,,,,,,,,,,49.462,3.454
Ambleny,49.376,3.183,,,,,,,,,,,,,,,,,,,,,,,,,,,,,,,,,,,,49.376,3.183
Ambrief,49.322,3.404,,,,,,,,,,,,,,,,,,,,,,,,,,,,,,,,,,,,49.322,3.404
Amifontaine,49.499,3.923,,,,,,,,,,,,,,,,,,,,,,,,,,,,,,,,,,,,49.499,3.923
Amigny-Rouy,49.611,3.303,,,,,,,,,,,,,,,,,,,,,,,,,,,,,,,,,,,,49.611,3.303
Ancienville,49.219,3.208,,,,,,,,,,,,,,,,,,,,,,,,,,,,,,,,,,,,49.219,3.208
Andelain,49.641,3.37,,,,,,,,,,,,,,,,,,,,,,,,,,,,,,,,,,,,49.641,3.37
Anguilcourt-le-Sart,49.694,3.428,,,,,,,,,,,,,,,,,,,,,,,,,,,,,,,,,,,,49.694,3.428
Anizy-le-Grand,49.504,3.431,,,,,,,,,,,,,,,,,,,,,,,,,,,,,,,,,,,,49.504,3.431
Annois,49.721,3.176,,,,,,,,,,,,,,,,,,,,,,,,,,,,,,,,,,,,49.721,3.176
Any-Martin-Rieux,49.882,4.224,,,,,,,,,,,,,,,,,,,,,,,,,,,,,,,,,,,,49.882,4.224
Archon,49.744,4.119,,,,,,,,,,,,,,,,,,,,,,,,,,,,,,,,,,,,49.744,4.119
Arcy-Sainte-Restitue,49.255,3.478,,,,,,,,,,,,,,,,,,,,,,,,,,,,,,,,,,,,49.255,3.478
Armentières-sur-Ourcq,49.173,3.388,,,,,,,,,,,,,,,,,,,,,,,,,,,,,,,,,,,,49.173,3.388
Arrancy,49.499,3.765,,,,,,,,,,,,,,,,,,,,,,,,,,,,,,,,,,,,49.499,3.765
Artemps,49.762,3.197,,,,,,,,,,,,,,,,,,,,,,,,,,,,,,,,,,,,49.762,3.197
Assis-sur-Serre,49.68,3.555,,,,,,,,,,,,,,,,,,,,,,,,,,,,,,,,,,,,49.68,3.555
Athies-sous-Laon,49.576,3.69,,,,,,,,,,,,,,,,,,,,,,,,,,,,,,,,,,,,49.576,3.69
Attilly,49.855,3.154,,,,,,,,,,,,,,,,,,,,,,,,,,,,,,,,,,,,49.855,3.154
Aubencheul-aux-Bois,50.024,3.261,,,,,,,,,,,,,,,,,,,,,,,,,,,,,,,,,,,,50.024,3.261
Aubenton,49.825,4.191,,,,,,,,,,,,,,,,,,,,,,,,,,,,,,,,,,,,49.825,4.191
Aubigny-aux-Kaisnes,49.772,3.119,,,,,,,,,,,,,,,,,,,,,,,,,,,,,,,,,,,,49.772,3.119
Aubigny-en-Laonnois,49.497,3.793,,,,,,,,,,,,,,,,,,,,,,,,,,,,,,,,,,,,49.497,3.793
Audignicourt,49.478,3.127,,,,,,,,,,,,,,,,,,,,,,,,,,,,,,,,,,,,49.478,3.127
Audigny,49.866,3.631,,,,,,,,,,,,,,,,,,,,,,,,,,,,,,,,,,,,49.866,3.631
Augy,49.34,3.511,,,,,,,,,,,,,,,,,,,,,,,,,,,,,,,,,,,,49.34,3.511
Aulnois-sous-Laon,49.62,3.61,,,,,,,,,,,,,,,,,,,,,,,,,,,,,,,,,,,,49.62,3.61
Les Autels,49.761,4.224,,,,,,,,,,,,,,,,,,,,,,,,,,,,,,,,,,,,49.761,4.224
Autremencourt,49.705,3.794,,,,,,,,,,,,,,,,,,,,,,,,,,,,,,,,,,,,49.705,3.794
Autreppes,49.897,3.856,,,,,,,,,,,,,,,,,,,,,,,,,,,,,,,,,,,,49.897,3.856
Autreville,49.586,3.236,,,,,,,,,,,,,,,,,,,,,,,,,,,,,,,,,,,,49.586,3.236
Azy-sur-Marne,49.004,3.359,,,,,,,,,,,,,,,,,,,,,,,,,,,,,,,,,,,,49.004,3.359
Bagneux,49.46,3.28,,,,,,,,,,,,,,,,,,,,,,,,,,,,,,,,,,,,49.46,3.28
Bancigny,49.798,4.037,,,,,,,,,,,,,,,,,,,,,,,,,,,,,,,,,,,,49.798,4.037
Barenton-Bugny,49.622,3.661,,,,,,,,,,,,,,,,,,,,,,,,,,,,,,,,,,,,49.622,3.661
Barenton-Cel,49.648,3.645,,,,,,,,,,,,,,,,,,,,,,,,,,,,,,,,,,,,49.648,3.645
Barenton-sur-Serre,49.668,3.689,,,,,,,,,,,,,,,,,,,,,,,,,,,,,,,,,,,,49.668,3.689
Barisis-aux-Bois,49.578,3.328,,,,,,,,,,,,,,,,,,,,,,,,,,,,,,,,,,,,49.578,3.328
Barzy-en-Thiérache,50.04,3.749,,,,,,,,,,,,,,,,,,,,,,,,,,,,,,,,,,,,50.04,3.749
Barzy-sur-Marne,49.091,3.562,,,,,,,,,,,,,,,,,,,,,,,,,,,,,,,,,,,,49.091,3.562
Bassoles-Aulers,49.533,3.385,,,,,,,,,,,,,,,,,,,,,,,,,,,,,,,,,,,,49.533,3.385
Vallées en Champagne,48.99,3.605,,,,,,,,,,,,,,,,,,,,,,,,,,,,,,,,,,,,48.99,3.605
Bazoches-et-Saint-Thibaut,49.307,3.616,,,,,,,,,,,,,,,,,,,,,,,,,,,,,,,,,,,,49.307,3.616
Beaumé,49.821,4.152,,,,,,,,,,,,,,,,,,,,,,,,,,,,,,,,,,,,49.821,4.152
Beaumont-en-Beine,49.688,3.131,,,,,,,,,,,,,,,,,,,,,,,,,,,,,,,,,,,,49.688,3.131
Beaurevoir,49.997,3.33,,,,,,,,,,,,,,,,,,,,,,,,,,,,,,,,,,,,49.997,3.33
Beaurieux,49.403,3.753,,,,,,,,,,,,,,,,,,,,,,,,,,,,,,,,,,,,49.403,3.753
Beautor,49.648,3.338,,,,,,,,,,,,,,,,,,,,,,,,,,,,,,,,,,,,49.648,3.338
Beauvois-en-Vermandois,49.834,3.103,,,,,,,,,,,,,,,,,,,,,,,,,,,,,,,,,,,,49.834,3.103
Becquigny,50.016,3.459,,,,,,,,,,,,,,,,,,,,,,,,,,,,,,,,,,,,50.016,3.459
Belleau,49.083,3.3,,,,,,,,,,,,,,,,,,,,,,,,,,,,,,,,,,,,49.083,3.3
Bellenglise,49.926,3.244,,,,,,,,,,,,,,,,,,,,,,,,,,,,,,,,,,,,49.926,3.244
Belleu,49.357,3.34,,,,,,,,,,,,,,,,,,,,,,,,,,,,,,,,,,,,49.357,3.34
Bellicourt,49.959,3.23,,,,,,,,,,,,,,,,,,,,,,,,,,,,,,,,,,,,49.959,3.23
Benay,49.755,3.309,,,,,,,,,,,,,,,,,,,,,,,,,,,,,,,,,,,,49.755,3.309
Bergues-sur-Sambre,50.03,3.711,,,,,,,,,,,,,,,,,,,,,,,,,,,,,,,,,,,,50.03,3.711
Berlancourt,49.781,3.757,,,,,,,,,,,,,,,,,,,,,,,,,,,,,,,,,,,,49.781,3.757
Berlise,49.662,4.113,,,,,,,,,,,,,,,,,,,,,,,,,,,,,,,,,,,,49.662,4.113
Bernot,49.879,3.487,,,,,,,,,,,,,,,,,,,,,,,,,,,,,,,,,,,,49.879,3.487
Berny-Rivière,49.411,3.15,,,,,,,,,,,,,,,,,,,,,,,,,,,,,,,,,,,,49.411,3.15
Berrieux,49.482,3.852,,,,,,,,,,,,,,,,,,,,,,,,,,,,,,,,,,,,49.482,3.852
Berry-au-Bac,49.408,3.898,,,,,,,,,,,,,,,,,,,,,,,,,,,,,,,,,,,,49.408,3.898
Bertaucourt-Epourdon,49.628,3.398,,,,,,,,,,,,,,,,,,,,,,,,,,,,,,,,,,,,49.628,3.398
Berthenicourt,49.779,3.372,,,,,,,,,,,,,,,,,,,,,,,,,,,,,,,,,,,,49.779,3.372
Bertricourt,49.398,4.012,,,,,,,,,,,,,,,,,,,,,,,,,,,,,,,,,,,,49.398,4.012
Besmé,49.534,3.165,,,,,,,,,,,,,,,,,,,,,,,,,,,,,,,,,,,,49.534,3.165
Besmont,49.823,4.118,,,,,,,,,,,,,,,,,,,,,,,,,,,,,,,,,,,,49.823,4.118
Besny-et-Loizy,49.593,3.577,,,,,,,,,,,,,,,,,,,,,,,,,,,,,,,,,,,,49.593,3.577
Béthancourt-en-Vaux,49.629,3.141,,,,,,,,,,,,,,,,,,,,,,,,,,,,,,,,,,,,49.629,3.141
Beugneux,49.228,3.416,,,,,,,,,,,,,,,,,,,,,,,,,,,,,,,,,,,,49.228,3.416
Beuvardes,49.131,3.492,,,,,,,,,,,,,,,,,,,,,,,,,,,,,,,,,,,,49.131,3.492
Bézu-le-Guéry,49.01,3.228,,,,,,,,,,,,,,,,,,,,,,,,,,,,,,,,,,,,49.01,3.228
Bézu-Saint-Germain,49.105,3.408,,,,,,,,,,,,,,,,,,,,,,,,,,,,,,,,,,,,49.105,3.408
Bichancourt,49.579,3.213,,,,,,,,,,,,,,,,,,,,,,,,,,,,,,,,,,,,49.579,3.213
Bieuxy,49.448,3.27,,,,,,,,,,,,,,,,,,,,,,,,,,,,,,,,,,,,49.448,3.27
Bièvres,49.492,3.714,,,,,,,,,,,,,,,,,,,,,,,,,,,,,,,,,,,,49.492,3.714
Billy-sur-Aisne,49.356,3.376,,,,,,,,,,,,,,,,,,,,,,,,,,,,,,,,,,,,49.356,3.376
Billy-sur-Ourcq,49.222,3.299,,,,,,,,,,,,,,,,,,,,,,,,,,,,,,,,,,,,49.222,3.299
Blanzy-lès-Fismes,49.337,3.672,,,,,,,,,,,,,,,,,,,,,,,,,,,,,,,,,,,,49.337,3.672
Blérancourt,49.508,3.152,,,,,,,,,,,,,,,,,,,,,,,,,,,,,,,,,,,,49.508,3.152
Blesmes,49.026,3.464,,,,,,,,,,,,,,,,,,,,,,,,,,,,,,,,,,,,49.026,3.464
Bohain-en-Vermandois,49.989,3.465,,,,,,,,,,,,,,,,,,,,,,,,,,,,,,,,,,,,49.989,3.465
Bois-lès-Pargny,49.737,3.654,,,,,,,,,,,,,,,,,,,,,,,,,,,,,,,,,,,,49.737,3.654
Boncourt,49.626,3.956,,,,,,,,,,,,,,,,,,,,,,,,,,,,,,,,,,,,49.626,3.956
Bonneil,49.008,3.346,,,,,,,,,,,,,,,,,,,,,,,,,,,,,,,,,,,,49.008,3.346
Bonnesvalyn,49.126,3.325,,,,,,,,,,,,,,,,,,,,,,,,,,,,,,,,,,,,49.126,3.325
Bony,49.991,3.221,,,,,,,,,,,,,,,,,,,,,,,,,,,,,,,,,,,,49.991,3.221
Bosmont-sur-Serre,49.739,3.867,,,,,,,,,,,,,,,,,,,,,,,,,,,,,,,,,,,,49.739,3.867
Bouconville-Vauclair,49.461,3.757,,,,,,,,,,,,,,,,,,,,,,,,,,,,,,,,,,,,49.461,3.757
Boué,50.012,3.714,,,,,,,,,,,,,,,,,,,,,,,,,,,,,,,,,,,,50.012,3.714
Bouffignereux,49.379,3.846,,,,,,,,,,,,,,,,,,,,,,,,,,,,,,,,,,,,49.379,3.846
Bouresches,49.067,3.317,,,,,,,,,,,,,,,,,,,,,,,,,,,,,,,,,,,,49.067,3.317
Bourg-et-Comin,49.402,3.659,,,,,,,,,,,,,,,,,,,,,,,,,,,,,,,,,,,,49.402,3.659
Bourguignon-sous-Coucy,49.543,3.154,,,,,,,,,,,,,,,,,,,,,,,,,,,,,,,,,,,,49.543,3.154
Bourguignon-sous-Montbavin,49.529,3.538,,,,,,,,,,,,,,,,,,,,,,,,,,,,,,,,,,,,49.529,3.538
La Bouteille,49.878,3.962,,,,,,,,,,,,,,,,,,,,,,,,,,,,,,,,,,,,49.878,3.962
Braine,49.348,3.536,,,,,,,,,,,,,,,,,,,,,,,,,,,,,,,,,,,,49.348,3.536
Brancourt-en-Laonnois,49.518,3.413,,,,,,,,,,,,,,,,,,,,,,,,,,,,,,,,,,,,49.518,3.413
Brancourt-le-Grand,49.981,3.394,,,,,,,,,,,,,,,,,,,,,,,,,,,,,,,,,,,,49.981,3.394
Brasles,49.057,3.424,,,,,,,,,,,,,,,,,,,,,,,,,,,,,,,,,,,,49.057,3.424
Braye-en-Laonnois,49.438,3.61,,,,,,,,,,,,,,,,,,,,,,,,,,,,,,,,,,,,49.438,3.61
Braye-en-Thiérache,49.768,3.963,,,,,,,,,,,,,,,,,,,,,,,,,,,,,,,,,,,,49.768,3.963
Bray-Saint-Christophe,49.775,3.141,,,,,,,,,,,,,,,,,,,,,,,,,,,,,,,,,,,,49.775,3.141
Braye,49.422,3.378,,,,,,,,,,,,,,,,,,,,,,,,,,,,,,,,,,,,49.422,3.378
Brécy,49.14,3.424,,,,,,,,,,,,,,,,,,,,,,,,,,,,,,,,,,,,49.14,3.424
Brenelle,49.368,3.544,,,,,,,,,,,,,,,,,,,,,,,,,,,,,,,,,,,,49.368,3.544
Breny,49.184,3.35,,,,,,,,,,,,,,,,,,,,,,,,,,,,,,,,,,,,49.184,3.35
Brie,49.597,3.473,,,,,,,,,,,,,,,,,,,,,,,,,,,,,,,,,,,,49.597,3.473
Brissay-Choigny,49.723,3.396,,,,,,,,,,,,,,,,,,,,,,,,,,,,,,,,,,,,49.723,3.396
Brissy-Hamégicourt,49.743,3.4,,,,,,,,,,,,,,,,,,,,,,,,,,,,,,,,,,,,49.743,3.4
Brumetz,49.11,3.153,,,,,,,,,,,,,,,,,,,,,,,,,,,,,,,,,,,,49.11,3.153
Brunehamel,49.772,4.186,,,,,,,,,,,,,,,,,,,,,,,,,,,,,,,,,,,,49.772,4.186
Bruyères-sur-Fère,49.2,3.445,,,,,,,,,,,,,,,,,,,,,,,,,,,,,,,,,,,,49.2,3.445
Bruyères-et-Montbérault,49.524,3.67,,,,,,,,,,,,,,,,,,,,,,,,,,,,,,,,,,,,49.524,3.67
Bruys,49.262,3.569,,,,,,,,,,,,,,,,,,,,,,,,,,,,,,,,,,,,49.262,3.569
Bucilly,49.866,4.093,,,,,,,,,,,,,,,,,,,,,,,,,,,,,,,,,,,,49.866,4.093
Bucy-le-Long,49.388,3.398,,,,,,,,,,,,,,,,,,,,,,,,,,,,,,,,,,,,49.388,3.398
Bucy-lès-Cerny,49.579,3.497,,,,,,,,,,,,,,,,,,,,,,,,,,,,,,,,,,,,49.579,3.497
Bucy-lès-Pierrepont,49.647,3.904,,,,,,,,,,,,,,,,,,,,,,,,,,,,,,,,,,,,49.647,3.904
Buire,49.907,4.057,,,,,,,,,,,,,,,,,,,,,,,,,,,,,,,,,,,,49.907,4.057
Buironfosse,49.958,3.838,,,,,,,,,,,,,,,,,,,,,,,,,,,,,,,,,,,,49.958,3.838
Burelles,49.769,3.912,,,,,,,,,,,,,,,,,,,,,,,,,,,,,,,,,,,,49.769,3.912
Bussiares,49.077,3.25,,,,,,,,,,,,,,,,,,,,,,,,,,,,,,,,,,,,49.077,3.25
Buzancy,49.31,3.348,,,,,,,,,,,,,,,,,,,,,,,,,,,,,,,,,,,,49.31,3.348
Caillouël-Crépigny,49.618,3.122,,,,,,,,,,,,,,,,,,,,,,,,,,,,,,,,,,,,49.618,3.122
Camelin,49.52,3.128,,,,,,,,,,,,,,,,,,,,,,,,,,,,,,,,,,,,49.52,3.128
La Capelle,49.973,3.914,,,,,,,,,,,,,,,,,,,,,,,,,,,,,,,,,,,,49.973,3.914
Castres,49.801,3.253,,,,,,,,,,,,,,,,,,,,,,,,,,,,,,,,,,,,49.801,3.253
Le Catelet,50.001,3.242,,,,,,,,,,,,,,,,,,,,,,,,,,,,,,,,,,,,50.001,3.242
Caulaincourt,49.865,3.111,,,,,,,,,,,,,,,,,,,,,,,,,,,,,,,,,,,,49.865,3.111
Caumont,49.637,3.174,,,,,,,,,,,,,,,,,,,,,,,,,,,,,,,,,,,,49.637,3.174
Celles-lès-Condé,49.015,3.57,,,,,,,,,,,,,,,,,,,,,,,,,,,,,,,,,,,,49.015,3.57
Celles-sur-Aisne,49.416,3.474,,,,,,,,,,,,,,,,,,,,,,,,,,,,,,,,,,,,49.416,3.474
Cerizy,49.767,3.333,,,,,,,,,,,,,,,,,,,,,,,,,,,,,,,,,,,,49.767,3.333
Cerny-en-Laonnois,49.45,3.68,,,,,,,,,,,,,,,,,,,,,,,,,,,,,,,,,,,,49.45,3.68
Cerny-lès-Bucy,49.578,3.546,,,,,,,,,,,,,,,,,,,,,,,,,,,,,,,,,,,,49.578,3.546
Cerseuil,49.325,3.518,,,,,,,,,,,,,,,,,,,,,,,,,,,,,,,,,,,,49.325,3.518
Cessières-Suzy,49.56,3.502,,,,,,,,,,,,,,,,,,,,,,,,,,,,,,,,,,,,49.56,3.502
Chacrise,49.3,3.398,,,,,,,,,,,,,,,,,,,,,,,,,,,,,,,,,,,,49.3,3.398
Chaillevois,49.508,3.522,,,,,,,,,,,,,,,,,,,,,,,,,,,,,,,,,,,,49.508,3.522
Chalandry,49.67,3.644,,,,,,,,,,,,,,,,,,,,,,,,,,,,,,,,,,,,49.67,3.644
Chambry,49.599,3.672,,,,,,,,,,,,,,,,,,,,,,,,,,,,,,,,,,,,49.599,3.672
Chamouille,49.472,3.671,,,,,,,,,,,,,,,,,,,,,,,,,,,,,,,,,,,,49.472,3.671
Champs,49.544,3.262,,,,,,,,,,,,,,,,,,,,,,,,,,,,,,,,,,,,49.544,3.262
Chaourse,49.701,3.986,,,,,,,,,,,,,,,,,,,,,,,,,,,,,,,,,,,,49.701,3.986
La Chapelle-sur-Chézy,48.949,3.377,,,,,,,,,,,,,,,,,,,,,,,,,,,,,,,,,,,,48.949,3.377
Charly-sur-Marne,48.99,3.294,,,,,,,,,,,,,,,,,,,,,,,,,,,,,,,,,,,,48.99,3.294
Le Charmel,49.112,3.541,,,,,,,,,,,,,,,,,,,,,,,,,,,,,,,,,,,,49.112,3.541
Charmes,49.651,3.385,,,,,,,,,,,,,,,,,,,,,,,,,,,,,,,,,,,,49.651,3.385
Chartèves,49.09,3.509,,,,,,,,,,,,,,,,,,,,,,,,,,,,,,,,,,,,49.09,3.509
Chassemy,49.378,3.503,,,,,,,,,,,,,,,,,,,,,,,,,,,,,,,,,,,,49.378,3.503
Château-Thierry,49.056,3.382,,,,,,,,,,,,,,,,,,,,,,,,,,,,,,,,,,,,49.056,3.382
Châtillon-lès-Sons,49.762,3.703,,,,,,,,,,,,,,,,,,,,,,,,,,,,,,,,,,,,49.762,3.703
Châtillon-sur-Oise,49.794,3.416,,,,,,,,,,,,,,,,,,,,,,,,,,,,,,,,,,,,49.794,3.416
Chaudardes,49.396,3.789,,,,,,,,,,,,,,,,,,,,,,,,,,,,,,,,,,,,49.396,3.789
Chaudun,49.315,3.253,,,,,,,,,,,,,,,,,,,,,,,,,,,,,,,,,,,,49.315,3.253
Chauny,49.62,3.219,,,,,,,,,,,,,,,,,,,,,,,,,,,,,,,,,,,,49.62,3.219
Chavignon,49.479,3.519,,,,,,,,,,,,,,,,,,,,,,,,,,,,,,,,,,,,49.479,3.519
Chavigny,49.423,3.306,,,,,,,,,,,,,,,,,,,,,,,,,,,,,,,,,,,,49.423,3.306
Chavonne,49.407,3.562,,,,,,,,,,,,,,,,,,,,,,,,,,,,,,,,,,,,49.407,3.562
Chérêt,49.514,3.687,,,,,,,,,,,,,,,,,,,,,,,,,,,,,,,,,,,,49.514,3.687
Chermizy-Ailles,49.463,3.72,,,,,,,,,,,,,,,,,,,,,,,,,,,,,,,,,,,,49.463,3.72
Chéry-Chartreuve,49.256,3.605,,,,,,,,,,,,,,,,,,,,,,,,,,,,,,,,,,,,49.256,3.605
Chéry-lès-Pouilly,49.649,3.594,,,,,,,,,,,,,,,,,,,,,,,,,,,,,,,,,,,,49.649,3.594
Chéry-lès-Rozoy,49.722,4.101,,,,,,,,,,,,,,,,,,,,,,,,,,,,,,,,,,,,49.722,4.101
Chevennes,49.818,3.737,,,,,,,,,,,,,,,,,,,,,,,,,,,,,,,,,,,,49.818,3.737
Chevregny,49.466,3.594,,,,,,,,,,,,,,,,,,,,,,,,,,,,,,,,,,,,49.466,3.594
Chevresis-Monceau,49.762,3.584,,,,,,,,,,,,,,,,,,,,,,,,,,,,,,,,,,,,49.762,3.584
Chézy-en-Orxois,49.127,3.168,,,,,,,,,,,,,,,,,,,,,,,,,,,,,,,,,,,,49.127,3.168
Chézy-sur-Marne,48.984,3.382,,,,,,,,,,,,,,,,,,,,,,,,,,,,,,,,,,,,48.984,3.382
Chierry,49.035,3.433,,,,,,,,,,,,,,,,,,,,,,,,,,,,,,,,,,,,49.035,3.433
Chigny,49.93,3.775,,,,,,,,,,,,,,,,,,,,,,,,,,,,,,,,,,,,49.93,3.775
Chivres-en-Laonnois,49.627,3.856,,,,,,,,,,,,,,,,,,,,,,,,,,,,,,,,,,,,49.627,3.856
Chivres-Val,49.403,3.438,,,,,,,,,,,,,,,,,,,,,,,,,,,,,,,,,,,,49.403,3.438
Chivy-lès-Étouvelles,49.533,3.586,,,,,,,,,,,,,,,,,,,,,,,,,,,,,,,,,,,,49.533,3.586
Chouy,49.217,3.247,,,,,,,,,,,,,,,,,,,,,,,,,,,,,,,,,,,,49.217,3.247
Cierges,49.165,3.604,,,,,,,,,,,,,,,,,,,,,,,,,,,,,,,,,,,,49.165,3.604
Cilly,49.749,3.84,,,,,,,,,,,,,,,,,,,,,,,,,,,,,,,,,,,,49.749,3.84
Ciry-Salsogne,49.368,3.468,,,,,,,,,,,,,,,,,,,,,,,,,,,,,,,,,,,,49.368,3.468
Clacy-et-Thierret,49.552,3.566,,,,,,,,,,,,,,,,,,,,,,,,,,,,,,,,,,,,49.552,3.566
Clairfontaine,49.974,3.987,,,,,,,,,,,,,,,,,,,,,,,,,,,,,,,,,,,,49.974,3.987
Clamecy,49.428,3.364,,,,,,,,,,,,,,,,,,,,,,,,,,,,,,,,,,,,49.428,3.364
Clastres,49.749,3.23,,,,,,,,,,,,,,,,,,,,,,,,,,,,,,,,,,,,49.749,3.23
Clermont-les-Fermes,49.66,3.943,,,,,,,,,,,,,,,,,,,,,,,,,,,,,,,,,,,,49.66,3.943
Cœuvres-et-Valsery,49.33,3.153,,,,,,,,,,,,,,,,,,,,,,,,,,,,,,,,,,,,49.33,3.153
Coincy,49.163,3.436,,,,,,,,,,,,,,,,,,,,,,,,,,,,,,,,,,,,49.163,3.436
Coingt,49.792,4.096,,,,,,,,,,,,,,,,,,,,,,,,,,,,,,,,,,,,49.792,4.096
Colligis-Crandelain,49.467,3.63,,,,,,,,,,,,,,,,,,,,,,,,,,,,,,,,,,,,49.467,3.63
Colonfay,49.858,3.711,,,,,,,,,,,,,,,,,,,,,,,,,,,,,,,,,,,,49.858,3.711
Commenchon,49.642,3.151,,,,,,,,,,,,,,,,,,,,,,,,,,,,,,,,,,,,49.642,3.151
Concevreux,49.376,3.788,,,,,,,,,,,,,,,,,,,,,,,,,,,,,,,,,,,,49.376,3.788
Condé-en-Brie,49.002,3.561,,,,,,,,,,,,,,,,,,,,,,,,,,,,,,,,,,,,49.002,3.561
Condé-sur-Aisne,49.401,3.466,,,,,,,,,,,,,,,,,,,,,,,,,,,,,,,,,,,,49.401,3.466
Condé-sur-Suippe,49.414,3.945,,,,,,,,,,,,,,,,,,,,,,,,,,,,,,,,,,,,49.414,3.945
Condren,49.637,3.277,,,,,,,,,,,,,,,,,,,,,,,,,,,,,,,,,,,,49.637,3.277
Connigis,49.036,3.533,,,,,,,,,,,,,,,,,,,,,,,,,,,,,,,,,,,,49.036,3.533
Contescourt,49.792,3.234,,,,,,,,,,,,,,,,,,,,,,,,,,,,,,,,,,,,49.792,3.234
Corbeny,49.462,3.826,,,,,,,,,,,,,,,,,,,,,,,,,,,,,,,,,,,,49.462,3.826
Corcy,49.255,3.197,,,,,,,,,,,,,,,,,,,,,,,,,,,,,,,,,,,,49.255,3.197
Coucy-le-Château-Auffrique,49.516,3.316,,,,,,,,,,,,,,,,,,,,,,,,,,,,,,,,,,,,49.516,3.316
Coucy-lès-Eppes,49.557,3.777,,,,,,,,,,,,,,,,,,,,,,,,,,,,,,,,,,,,49.557,3.777
Coucy-la-Ville,49.541,3.344,,,,,,,,,,,,,,,,,,,,,,,,,,,,,,,,,,,,49.541,3.344
Coulonges-Cohan,49.198,3.628,,,,,,,,,,,,,,,,,,,,,,,,,,,,,,,,,,,,49.198,3.628
Coupru,49.031,3.274,,,,,,,,,,,,,,,,,,,,,,,,,,,,,,,,,,,,49.031,3.274
Courbes,49.682,3.46,,,,,,,,,,,,,,,,,,,,,,,,,,,,,,,,,,,,49.682,3.46
Courboin,48.996,3.507,,,,,,,,,,,,,,,,,,,,,,,,,,,,,,,,,,,,48.996,3.507
Courcelles-sur-Vesle,49.348,3.577,,,,,,,,,,,,,,,,,,,,,,,,,,,,,,,,,,,,49.348,3.577
Courchamps,49.116,3.263,,,,,,,,,,,,,,,,,,,,,,,,,,,,,,,,,,,,49.116,3.263
Courmelles,49.343,3.302,,,,,,,,,,,,,,,,,,,,,,,,,,,,,,,,,,,,49.343,3.302
Courmont,49.138,3.576,,,,,,,,,,,,,,,,,,,,,,,,,,,,,,,,,,,,49.138,3.576
Courtemont-Varennes,49.072,3.542,,,,,,,,,,,,,,,,,,,,,,,,,,,,,,,,,,,,49.072,3.542
Courtrizy-et-Fussigny,49.514,3.795,,,,,,,,,,,,,,,,,,,,,,,,,,,,,,,,,,,,49.514,3.795
Couvrelles,49.334,3.485,,,,,,,,,,,,,,,,,,,,,,,,,,,,,,,,,,,,49.334,3.485
Couvron-et-Aumencourt,49.646,3.524,,,,,,,,,,,,,,,,,,,,,,,,,,,,,,,,,,,,49.646,3.524
Coyolles,49.213,3.013,,,,,,,,,,,,,,,,,,,,,,,,,,,,,,,,,,,,49.213,3.013
Cramaille,49.229,3.452,,,,,,,,,,,,,,,,,,,,,,,,,,,,,,,,,,,,49.229,3.452
Craonne,49.448,3.792,,,,,,,,,,,,,,,,,,,,,,,,,,,,,,,,,,,,49.448,3.792
Craonnelle,49.426,3.777,,,,,,,,,,,,,,,,,,,,,,,,,,,,,,,,,,,,49.426,3.777
Crécy-au-Mont,49.484,3.312,,,,,,,,,,,,,,,,,,,,,,,,,,,,,,,,,,,,49.484,3.312
Crécy-sur-Serre,49.699,3.623,,,,,,,,,,,,,,,,,,,,,,,,,,,,,,,,,,,,49.699,3.623
Crépy,49.608,3.512,,,,,,,,,,,,,,,,,,,,,,,,,,,,,,,,,,,,49.608,3.512
Crézancy,49.043,3.511,,,,,,,,,,,,,,,,,,,,,,,,,,,,,,,,,,,,49.043,3.511
Croix-Fonsomme,49.931,3.394,,,,,,,,,,,,,,,,,,,,,,,,,,,,,,,,,,,,49.931,3.394
La Croix-sur-Ourcq,49.16,3.35,,,,,,,,,,,,,,,,,,,,,,,,,,,,,,,,,,,,49.16,3.35
Crouttes-sur-Marne,48.979,3.248,,,,,,,,,,,,,,,,,,,,,,,,,,,,,,,,,,,,48.979,3.248
Crouy,49.408,3.366,,,,,,,,,,,,,,,,,,,,,,,,,,,,,,,,,,,,49.408,3.366
Crupilly,49.931,3.752,,,,,,,,,,,,,,,,,,,,,,,,,,,,,,,,,,,,49.931,3.752
Cuffies,49.408,3.322,,,,,,,,,,,,,,,,,,,,,,,,,,,,,,,,,,,,49.408,3.322
Cugny,49.703,3.154,,,,,,,,,,,,,,,,,,,,,,,,,,,,,,,,,,,,49.703,3.154
Cuirieux,49.683,3.82,,,,,,,,,,,,,,,,,,,,,,,,,,,,,,,,,,,,49.683,3.82
Cuiry-Housse,49.29,3.488,,,,,,,,,,,,,,,,,,,,,,,,,,,,,,,,,,,,49.29,3.488
Cuiry-lès-Chaudardes,49.39,3.762,,,,,,,,,,,,,,,,,,,,,,,,,,,,,,,,,,,,49.39,3.762
Cuiry-lès-Iviers,49.766,4.104,,,,,,,,,,,,,,,,,,,,,,,,,,,,,,,,,,,,49.766,4.104
Cuissy-et-Geny,49.404,3.706,,,,,,,,,,,,,,,,,,,,,,,,,,,,,,,,,,,,49.404,3.706
Cuisy-en-Almont,49.421,3.249,,,,,,,,,,,,,,,,,,,,,,,,,,,,,,,,,,,,49.421,3.249
Cutry,49.344,3.191,,,,,,,,,,,,,,,,,,,,,,,,,,,,,,,,,,,,49.344,3.191
Cys-la-Commune,49.384,3.572,,,,,,,,,,,,,,,,,,,,,,,,,,,,,,,,,,,,49.384,3.572
Dagny-Lambercy,49.769,4.042,,,,,,,,,,,,,,,,,,,,,,,,,,,,,,,,,,,,49.769,4.042
Dallon,49.824,3.23,,,,,,,,,,,,,,,,,,,,,,,,,,,,,,,,,,,,49.824,3.23
Dammard,49.147,3.177,,,,,,,,,,,,,,,,,,,,,,,,,,,,,,,,,,,,49.147,3.177
Dampleux,49.241,3.144,,,,,,,,,,,,,,,,,,,,,,,,,,,,,,,,,,,,49.241,3.144
Danizy,49.667,3.401,,,,,,,,,,,,,,,,,,,,,,,,,,,,,,,,,,,,49.667,3.401
Dercy,49.71,3.685,,,,,,,,,,,,,,,,,,,,,,,,,,,,,,,,,,,,49.71,3.685
Deuillet,49.629,3.36,,,,,,,,,,,,,,,,,,,,,,,,,,,,,,,,,,,,49.629,3.36
Dhuizel,49.36,3.615,,,,,,,,,,,,,,,,,,,,,,,,,,,,,,,,,,,,49.36,3.615
Dizy-le-Gros,49.636,4.013,,,,,,,,,,,,,,,,,,,,,,,,,,,,,,,,,,,,49.636,4.013
Dohis,49.767,4.142,,,,,,,,,,,,,,,,,,,,,,,,,,,,,,,,,,,,49.767,4.142
Dolignon,49.734,4.086,,,,,,,,,,,,,,,,,,,,,,,,,,,,,,,,,,,,49.734,4.086
Dommiers,49.329,3.216,,,,,,,,,,,,,,,,,,,,,,,,,,,,,,,,,,,,49.329,3.216
Domptin,49.016,3.273,,,,,,,,,,,,,,,,,,,,,,,,,,,,,,,,,,,,49.016,3.273
Dorengt,49.965,3.703,,,,,,,,,,,,,,,,,,,,,,,,,,,,,,,,,,,,49.965,3.703
Douchy,49.794,3.13,,,,,,,,,,,,,,,,,,,,,,,,,,,,,,,,,,,,49.794,3.13
Dravegny,49.239,3.641,,,,,,,,,,,,,,,,,,,,,,,,,,,,,,,,,,,,49.239,3.641
Droizy,49.277,3.39,,,,,,,,,,,,,,,,,,,,,,,,,,,,,,,,,,,,49.277,3.39
Dury,49.751,3.134,,,,,,,,,,,,,,,,,,,,,,,,,,,,,,,,,,,,49.751,3.134
Ébouleau,49.678,3.883,,,,,,,,,,,,,,,,,,,,,,,,,,,,,,,,,,,,49.678,3.883
Effry,49.919,3.988,,,,,,,,,,,,,,,,,,,,,,,,,,,,,,,,,,,,49.919,3.988
Englancourt,49.926,3.807,,,,,,,,,,,,,,,,,,,,,,,,,,,,,,,,,,,,49.926,3.807
Épagny,49.472,3.254,,,,,,,,,,,,,,,,,,,,,,,,,,,,,,,,,,,,49.472,3.254
Éparcy,49.886,4.07,,,,,,,,,,,,,,,,,,,,,,,,,,,,,,,,,,,,49.886,4.07
Épaux-Bézu,49.103,3.354,,,,,,,,,,,,,,,,,,,,,,,,,,,,,,,,,,,,49.103,3.354
Épieds,49.104,3.451,,,,,,,,,,,,,,,,,,,,,,,,,,,,,,,,,,,,49.104,3.451
L'Épine-aux-Bois,48.899,3.444,,,,,,,,,,,,,,,,,,,,,,,,,,,,,,,,,,,,48.899,3.444
Eppes,49.552,3.74,,,,,,,,,,,,,,,,,,,,,,,,,,,,,,,,,,,,49.552,3.74
Erlon,49.735,3.705,,,,,,,,,,,,,,,,,,,,,,,,,,,,,,,,,,,,49.735,3.705
Erloy,49.92,3.838,,,,,,,,,,,,,,,,,,,,,,,,,,,,,,,,,,,,49.92,3.838
Esquéhéries,49.982,3.753,,,,,,,,,,,,,,,,,,,,,,,,,,,,,,,,,,,,49.982,3.753
Essigny-le-Grand,49.774,3.272,,,,,,,,,,,,,,,,,,,,,,,,,,,,,,,,,,,,49.774,3.272
Essigny-le-Petit,49.896,3.367,,,,,,,,,,,,,,,,,,,,,,,,,,,,,,,,,,,,49.896,3.367
Essises,48.967,3.414,,,,,,,,,,,,,,,,,,,,,,,,,,,,,,,,,,,,48.967,3.414
Essômes-sur-Marne,49.034,3.34,,,,,,,,,,,,,,,,,,,,,,,,,,,,,,,,,,,,49.034,3.34
Estrées,49.971,3.28,,,,,,,,,,,,,,,,,,,,,,,,,,,,,,,,,,,,49.971,3.28
Étampes-sur-Marne,49.032,3.418,,,,,,,,,,,,,,,,,,,,,,,,,,,,,,,,,,,,49.032,3.418
Étaves-et-Bocquiaux,49.931,3.451,,,,,,,,,,,,,,,,,,,,,,,,,,,,,,,,,,,,49.931,3.451
Étouvelles,49.519,3.582,,,,,,,,,,,,,,,,,,,,,,,,,,,,,,,,,,,,49.519,3.582
Étréaupont,49.896,3.924,,,,,,,,,,,,,,,,,,,,,,,,,,,,,,,,,,,,49.896,3.924
Étreillers,49.833,3.158,,,,,,,,,,,,,,,,,,,,,,,,,,,,,,,,,,,,49.833,3.158
Étrépilly,49.082,3.348,,,,,,,,,,,,,,,,,,,,,,,,,,,,,,,,,,,,49.082,3.348
Étreux,50.0,3.659,,,,,,,,,,,,,,,,,,,,,,,,,,,,,,,,,,,,50.0,3.659
Évergnicourt,49.456,4.036,,,,,,,,,,,,,,,,,,,,,,,,,,,,,,,,,,,,49.456,4.036
Faverolles,49.227,3.178,,,,,,,,,,,,,,,,,,,,,,,,,,,,,,,,,,,,49.227,3.178
Fayet,49.871,3.253,,,,,,,,,,,,,,,,,,,,,,,,,,,,,,,,,,,,49.871,3.253
La Fère,49.666,3.369,,,,,,,,,,,,,,,,,,,,,,,,,,,,,,,,,,,,49.666,3.369
Fère-en-Tardenois,49.188,3.511,,,,,,,,,,,,,,,,,,,,,,,,,,,,,,,,,,,,49.188,3.511
La Ferté-Chevresis,49.741,3.551,,,,,,,,,,,,,,,,,,,,,,,,,,,,,,,,,,,,49.741,3.551
La Ferté-Milon,49.176,3.142,,,,,,,,,,,,,,,,,,,,,,,,,,,,,,,,,,,,49.176,3.142
Fesmy-le-Sart,50.048,3.698,,,,,,,,,,,,,,,,,,,,,,,,,,,,,,,,,,,,50.048,3.698
Festieux,49.525,3.76,,,,,,,,,,,,,,,,,,,,,,,,,,,,,,,,,,,,49.525,3.76
Fieulaine,49.902,3.446,,,,,,,,,,,,,,,,,,,,,,,,,,,,,,,,,,,,49.902,3.446
Filain,49.453,3.557,,,,,,,,,,,,,,,,,,,,,,,,,,,,,,,,,,,,49.453,3.557
La Flamengrie,50.0,3.925,,,,,,,,,,,,,,,,,,,,,,,,,,,,,,,,,,,,50.0,3.925
Flavigny-le-Grand-et-Beaurain,49.887,3.674,,,,,,,,,,,,,,,,,,,,,,,,,,,,,,,,,,,,49.887,3.674
Flavy-le-Martel,49.705,3.194,,,,,,,,,,,,,,,,,,,,,,,,,,,,,,,,,,,,49.705,3.194
Fleury,49.265,3.16,,,,,,,,,,,,,,,,,,,,,,,,,,,,,,,,,,,,49.265,3.16
Fluquières,49.8,3.157,,,,,,,,,,,,,,,,,,,,,,,,,,,,,,,,,,,,49.8,3.157
Folembray,49.549,3.293,,,,,,,,,,,,,,,,,,,,,,,,,,,,,,,,,,,,49.549,3.293
Fonsomme,49.901,3.396,,,,,,,,,,,,,,,,,,,,,,,,,,,,,,,,,,,,49.901,3.396
Fontaine-lès-Clercs,49.808,3.212,,,,,,,,,,,,,,,,,,,,,,,,,,,,,,,,,,,,49.808,3.212
Fontaine-lès-Vervins,49.854,3.905,,,,,,,,,,,,,,,,,,,,,,,,,,,,,,,,,,,,49.854,3.905
Fontaine-Notre-Dame,49.879,3.424,,,,,,,,,,,,,,,,,,,,,,,,,,,,,,,,,,,,49.879,3.424
Fontaine-Uterte,49.925,3.368,,,,,,,,,,,,,,,,,,,,,,,,,,,,,,,,,,,,49.925,3.368
Fontenelle,50.031,3.846,,,,,,,,,,,,,,,,,,,,,,,,,,,,,,,,,,,,50.031,3.846
Fontenoy,49.41,3.194,,,,,,,,,,,,,,,,,,,,,,,,,,,,,,,,,,,,49.41,3.194
Foreste,49.806,3.096,,,,,,,,,,,,,,,,,,,,,,,,,,,,,,,,,,,,49.806,3.096
Fossoy,49.045,3.485,,,,,,,,,,,,,,,,,,,,,,,,,,,,,,,,,,,,49.045,3.485
Fourdrain,49.619,3.46,,,,,,,,,,,,,,,,,,,,,,,,,,,,,,,,,,,,49.619,3.46
Francilly-Selency,49.855,3.228,,,,,,,,,,,,,,,,,,,,,,,,,,,,,,,,,,,,49.855,3.228
Franqueville,49.816,3.798,,,,,,,,,,,,,,,,,,,,,,,,,,,,,,,,,,,,49.816,3.798
Fresnes-en-Tardenois,49.143,3.549,,,,,,,,,,,,,,,,,,,,,,,,,,,,,,,,,,,,49.143,3.549
Fresnes-sous-Coucy,49.555,3.37,,,,,,,,,,,,,,,,,,,,,,,,,,,,,,,,,,,,49.555,3.37
Fresnoy-le-Grand,49.954,3.419,,,,,,,,,,,,,,,,,,,,,,,,,,,,,,,,,,,,49.954,3.419
Fressancourt,49.628,3.427,,,,,,,,,,,,,,,,,,,,,,,,,,,,,,,,,,,,49.628,3.427
Frières-Faillouël,49.684,3.237,,,,,,,,,,,,,,,,,,,,,,,,,,,,,,,,,,,,49.684,3.237
Froidestrées,49.943,3.91,,,,,,,,,,,,,,,,,,,,,,,,,,,,,,,,,,,,49.943,3.91
Froidmont-Cohartille,49.682,3.721,,,,,,,,,,,,,,,,,,,,,,,,,,,,,,,,,,,,49.682,3.721
Gandelu,49.083,3.182,,,,,,,,,,,,,,,,,,,,,,,,,,,,,,,,,,,,49.083,3.182
Gauchy,49.824,3.286,,,,,,,,,,,,,,,,,,,,,,,,,,,,,,,,,,,,49.824,3.286
Gercy,49.816,3.871,,,,,,,,,,,,,,,,,,,,,,,,,,,,,,,,,,,,49.816,3.871
Gergny,49.933,3.93,,,,,,,,,,,,,,,,,,,,,,,,,,,,,,,,,,,,49.933,3.93
Germaine,49.812,3.119,,,,,,,,,,,,,,,,,,,,,,,,,,,,,,,,,,,,49.812,3.119
Gibercourt,49.739,3.283,,,,,,,,,,,,,,,,,,,,,,,,,,,,,,,,,,,,49.739,3.283
Gizy,49.61,3.768,,,,,,,,,,,,,,,,,,,,,,,,,,,,,,,,,,,,49.61,3.768
Gland,49.058,3.457,,,,,,,,,,,,,,,,,,,,,,,,,,,,,,,,,,,,49.058,3.457
Goudelancourt-lès-Berrieux,49.495,3.859,,,,,,,,,,,,,,,,,,,,,,,,,,,,,,,,,,,,49.495,3.859
Goudelancourt-lès-Pierrepont,49.678,3.852,,,,,,,,,,,,,,,,,,,,,,,,,,,,,,,,,,,,49.678,3.852
Goussancourt,49.161,3.657,,,,,,,,,,,,,,,,,,,,,,,,,,,,,,,,,,,,49.161,3.657
Gouy,49.999,3.265,,,,,,,,,,,,,,,,,,,,,,,,,,,,,,,,,,,,49.999,3.265
Grandlup-et-Fay,49.651,3.736,,,,,,,,,,,,,,,,,,,,,,,,,,,,,,,,,,,,49.651,3.736
Grandrieux,49.729,4.188,,,,,,,,,,,,,,,,,,,,,,,,,,,,,,,,,,,,49.729,4.188
Gricourt,49.887,3.24,,,,,,,,,,,,,,,,,,,,,,,,,,,,,,,,,,,,49.887,3.24
Grisolles,49.13,3.372,,,,,,,,,,,,,,,,,,,,,,,,,,,,,,,,,,,,49.13,3.372
Gronard,49.796,3.882,,,,,,,,,,,,,,,,,,,,,,,,,,,,,,,,,,,,49.796,3.882
Grougis,49.951,3.531,,,,,,,,,,,,,,,,,,,,,,,,,,,,,,,,,,,,49.951,3.531
Grugies,49.81,3.275,,,,,,,,,,,,,,,,,,,,,,,,,,,,,,,,,,,,49.81,3.275
Villeneuve-sur-Aisne,49.443,3.955,,,,,,,,,,,,,,,,,,,,,,,,,,,,,,,,,,,,49.443,3.955
Guise,49.896,3.625,,,,,,,,,,,,,,,,,,,,,,,,,,,,,,,,,,,,49.896,3.625
Guivry,49.652,3.121,,,,,,,,,,,,,,,,,,,,,,,,,,,,,,,,,,,,49.652,3.121
Guny,49.512,3.261,,,,,,,,,,,,,,,,,,,,,,,,,,,,,,,,,,,,49.512,3.261
Guyencourt,49.357,3.841,,,,,,,,,,,,,,,,,,,,,,,,,,,,,,,,,,,,49.357,3.841
Hannapes,49.977,3.614,,,,,,,,,,,,,,,,,,,,,,,,,,,,,,,,,,,,49.977,3.614
Happencourt,49.783,3.183,,,,,,,,,,,,,,,,,,,,,,,,,,,,,,,,,,,,49.783,3.183
Haramont,49.287,3.032,,,,,,,,,,,,,,,,,,,,,,,,,,,,,,,,,,,,49.287,3.032
Harcigny,49.803,3.983,,,,,,,,,,,,,,,,,,,,,,,,,,,,,,,,,,,,49.803,3.983
Hargicourt,49.966,3.191,,,,,,,,,,,,,,,,,,,,,,,,,,,,,,,,,,,,49.966,3.191
Harly,49.841,3.335,,,,,,,,,,,,,,,,,,,,,,,,,,,,,,,,,,,,49.841,3.335
Hartennes-et-Taux,49.279,3.358,,,,,,,,,,,,,,,,,,,,,,,,,,,,,,,,,,,,49.279,3.358
Hary,49.797,3.919,,,,,,,,,,,,,,,,,,,,,,,,,,,,,,,,,,,,49.797,3.919
Lehaucourt,49.912,3.277,,,,,,,,,,,,,,,,,,,,,,,,,,,,,,,,,,,,49.912,3.277
Hautevesnes,49.109,3.236,,,,,,,,,,,,,,,,,,,,,,,,,,,,,,,,,,,,49.109,3.236
Hauteville,49.888,3.524,,,,,,,,,,,,,,,,,,,,,,,,,,,,,,,,,,,,49.888,3.524
Haution,49.872,3.827,,,,,,,,,,,,,,,,,,,,,,,,,,,,,,,,,,,,49.872,3.827
La Hérie,49.884,4.044,,,,,,,,,,,,,,,,,,,,,,,,,,,,,,,,,,,,49.884,4.044
Le Hérie-la-Viéville,49.822,3.654,,,,,,,,,,,,,,,,,,,,,,,,,,,,,,,,,,,,49.822,3.654
Hinacourt,49.746,3.294,,,,,,,,,,,,,,,,,,,,,,,,,,,,,,,,,,,,49.746,3.294
Hirson,49.943,4.105,,,,,,,,,,,,,,,,,,,,,,,,,,,,,,,,,,,,49.943,4.105
Holnon,49.861,3.201,,,,,,,,,,,,,,,,,,,,,,,,,,,,,,,,,,,,49.861,3.201
Homblières,49.858,3.375,,,,,,,,,,,,,,,,,,,,,,,,,,,,,,,,,,,,49.858,3.375
Houry,49.786,3.848,,,,,,,,,,,,,,,,,,,,,,,,,,,,,,,,,,,,49.786,3.848
Housset,49.796,3.695,,,,,,,,,,,,,,,,,,,,,,,,,,,,,,,,,,,,49.796,3.695
Iron,49.95,3.665,,,,,,,,,,,,,,,,,,,,,,,,,,,,,,,,,,,,49.95,3.665
Itancourt,49.803,3.349,,,,,,,,,,,,,,,,,,,,,,,,,,,,,,,,,,,,49.803,3.349
Iviers,49.786,4.136,,,,,,,,,,,,,,,,,,,,,,,,,,,,,,,,,,,,49.786,4.136
Jaulgonne,49.09,3.534,,,,,,,,,,,,,,,,,,,,,,,,,,,,,,,,,,,,49.09,3.534
Jeancourt,49.929,3.148,,,,,,,,,,,,,,,,,,,,,,,,,,,,,,,,,,,,49.929,3.148
Jeantes,49.813,4.067,,,,,,,,,,,,,,,,,,,,,,,,,,,,,,,,,,,,49.813,4.067
Joncourt,49.96,3.304,,,,,,,,,,,,,,,,,,,,,,,,,,,,,,,,,,,,49.96,3.304
Jouaignes,49.293,3.528,,,,,,,,,,,,,,,,,,,,,,,,,,,,,,,,,,,,49.293,3.528
Jumencourt,49.512,3.349,,,,,,,,,,,,,,,,,,,,,,,,,,,,,,,,,,,,49.512,3.349
Jumigny,49.408,3.725,,,,,,,,,,,,,,,,,,,,,,,,,,,,,,,,,,,,49.408,3.725
Jussy,49.717,3.236,,,,,,,,,,,,,,,,,,,,,,,,,,,,,,,,,,,,49.717,3.236
Juvigny,49.449,3.315,,,,,,,,,,,,,,,,,,,,,,,,,,,,,,,,,,,,49.449,3.315
Juvincourt-et-Damary,49.447,3.892,,,,,,,,,,,,,,,,,,,,,,,,,,,,,,,,,,,,49.447,3.892
Laffaux,49.45,3.43,,,,,,,,,,,,,,,,,,,,,,,,,,,,,,,,,,,,49.45,3.43
Laigny,49.863,3.861,,,,,,,,,,,,,,,,,,,,,,,,,,,,,,,,,,,,49.863,3.861
Lanchy,49.829,3.074,,,,,,,,,,,,,,,,,,,,,,,,,,,,,,,,,,,,49.829,3.074
Landifay-et-Bertaignemont,49.826,3.604,,,,,,,,,,,,,,,,,,,,,,,,,,,,,,,,,,,,49.826,3.604
Landouzy-la-Cour,49.844,3.994,,,,,,,,,,,,,,,,,,,,,,,,,,,,,,,,,,,,49.844,3.994
Landouzy-la-Ville,49.856,4.05,,,,,,,,,,,,,,,,,,,,,,,,,,,,,,,,,,,,49.856,4.05
Landricourt,49.505,3.37,,,,,,,,,,,,,,,,,,,,,,,,,,,,,,,,,,,,49.505,3.37
Laniscourt,49.547,3.534,,,,,,,,,,,,,,,,,,,,,,,,,,,,,,,,,,,,49.547,3.534
Laon,49.568,3.621,,,,,,,,,,,,,,,,,,,,,,,,,,,,,,,,,,,,49.568,3.621
Lappion,49.59,3.965,,,,,,,,,,,,,,,,,,,,,,,,,,,,,,,,,,,,49.59,3.965
Largny-sur-Automne,49.261,3.054,,,,,,,,,,,,,,,,,,,,,,,,,,,,,,,,,,,,49.261,3.054
Latilly,49.154,3.312,,,,,,,,,,,,,,,,,,,,,,,,,,,,,,,,,,,,49.154,3.312
Launoy,49.263,3.405,,,,,,,,,,,,,,,,,,,,,,,,,,,,,,,,,,,,49.263,3.405
Laval-en-Laonnois,49.503,3.588,,,,,,,,,,,,,,,,,,,,,,,,,,,,,,,,,,,,49.503,3.588
Lavaqueresse,49.946,3.717,,,,,,,,,,,,,,,,,,,,,,,,,,,,,,,,,,,,49.946,3.717
Laversine,49.353,3.155,,,,,,,,,,,,,,,,,,,,,,,,,,,,,,,,,,,,49.353,3.155
Lemé,49.844,3.758,,,,,,,,,,,,,,,,,,,,,,,,,,,,,,,,,,,,49.844,3.758
Lempire,49.995,3.174,,,,,,,,,,,,,,,,,,,,,,,,,,,,,,,,,,,,49.995,3.174
Lerzy,49.95,3.881,,,,,,,,,,,,,,,,,,,,,,,,,,,,,,,,,,,,49.95,3.881
Leschelle,49.961,3.777,,,,,,,,,,,,,,,,,,,,,,,,,,,,,,,,,,,,49.961,3.777
Lesdins,49.904,3.315,,,,,,,,,,,,,,,,,,,,,,,,,,,,,,,,,,,,49.904,3.315
Lesges,49.31,3.5,,,,,,,,,,,,,,,,,,,,,,,,,,,,,,,,,,,,49.31,3.5
Lesquielles-Saint-Germain,49.932,3.628,,,,,,,,,,,,,,,,,,,,,,,,,,,,,,,,,,,,49.932,3.628
Leuilly-sous-Coucy,49.473,3.353,,,,,,,,,,,,,,,,,,,,,,,,,,,,,,,,,,,,49.473,3.353
Leury,49.427,3.341,,,,,,,,,,,,,,,,,,,,,,,,,,,,,,,,,,,,49.427,3.341
Leuze,49.858,4.17,,,,,,,,,,,,,,,,,,,,,,,,,,,,,,,,,,,,49.858,4.17
Levergies,49.934,3.312,,,,,,,,,,,,,,,,,,,,,,,,,,,,,,,,,,,,49.934,3.312
Lhuys,49.273,3.542,,,,,,,,,,,,,,,,,,,,,,,,,,,,,,,,,,,,49.273,3.542
Licy-Clignon,49.102,3.265,,,,,,,,,,,,,,,,,,,,,,,,,,,,,,,,,,,,49.102,3.265
Lierval,49.488,3.622,,,,,,,,,,,,,,,,,,,,,,,,,,,,,,,,,,,,49.488,3.622
Liesse-Notre-Dame,49.611,3.817,,,,,,,,,,,,,,,,,,,,,,,,,,,,,,,,,,,,49.611,3.817
Liez,49.692,3.3,,,,,,,,,,,,,,,,,,,,,,,,,,,,,,,,,,,,49.692,3.3
Limé,49.324,3.555,,,,,,,,,,,,,,,,,,,,,,,,,,,,,,,,,,,,49.324,3.555
Lislet,49.676,4.021,,,,,,,,,,,,,,,,,,,,,,,,,,,,,,,,,,,,49.676,4.021
Logny-lès-Aubenton,49.833,4.22,,,,,,,,,,,,,,,,,,,,,,,,,,,,,,,,,,,,49.833,4.22
Longpont,49.284,3.221,,,,,,,,,,,,,,,,,,,,,,,,,,,,,,,,,,,,49.284,3.221
Les Septvallons,49.36,3.656,,,,,,,,,,,,,,,,,,,,,,,,,,,,,,,,,,,,49.36,3.656
Lor,49.53,4.054,,,,,,,,,,,,,,,,,,,,,,,,,,,,,,,,,,,,49.53,4.054
Louâtre,49.253,3.242,,,,,,,,,,,,,,,,,,,,,,,,,,,,,,,,,,,,49.253,3.242
Loupeigne,49.241,3.525,,,,,,,,,,,,,,,,,,,,,,,,,,,,,,,,,,,,49.241,3.525
Lucy-le-Bocage,49.055,3.276,,,,,,,,,,,,,,,,,,,,,,,,,,,,,,,,,,,,49.055,3.276
Lugny,49.782,3.812,,,,,,,,,,,,,,,,,,,,,,,,,,,,,,,,,,,,49.782,3.812
Luzoir,49.927,3.96,,,,,,,,,,,,,,,,,,,,,,,,,,,,,,,,,,,,49.927,3.96
Ly-Fontaine,49.732,3.311,,,,,,,,,,,,,,,,,,,,,,,,,,,,,,,,,,,,49.732,3.311
Maast-et-Violaine,49.293,3.457,,,,,,,,,,,,,,,,,,,,,,,,,,,,,,,,,,,,49.293,3.457
Mâchecourt,49.652,3.838,,,,,,,,,,,,,,,,,,,,,,,,,,,,,,,,,,,,49.652,3.838
Macogny,49.159,3.218,,,,,,,,,,,,,,,,,,,,,,,,,,,,,,,,,,,,49.159,3.218
Macquigny,49.873,3.571,,,,,,,,,,,,,,,,,,,,,,,,,,,,,,,,,,,,49.873,3.571
Magny-la-Fosse,49.937,3.276,,,,,,,,,,,,,,,,,,,,,,,,,,,,,,,,,,,,49.937,3.276
Maissemy,49.893,3.189,,,,,,,,,,,,,,,,,,,,,,,,,,,,,,,,,,,,49.893,3.189
Maizy,49.377,3.716,,,,,,,,,,,,,,,,,,,,,,,,,,,,,,,,,,,,49.377,3.716
La Malmaison,49.516,4.001,,,,,,,,,,,,,,,,,,,,,,,,,,,,,,,,,,,,49.516,4.001
Malzy,49.921,3.73,,,,,,,,,,,,,,,,,,,,,,,,,,,,,,,,,,,,49.921,3.73
Manicamp,49.565,3.18,,,,,,,,,,,,,,,,,,,,,,,,,,,,,,,,,,,,49.565,3.18
Marchais,49.585,3.822,,,,,,,,,,,,,,,,,,,,,,,,,,,,,,,,,,,,49.585,3.822
Dhuys et Morin-en-Brie,48.894,3.493,,,,,,,,,,,,,,,,,,,,,,,,,,,,,,,,,,,,48.894,3.493
Marcy,49.854,3.411,,,,,,,,,,,,,,,,,,,,,,,,,,,,,,,,,,,,49.854,3.411
Marcy-sous-Marle,49.746,3.734,,,,,,,,,,,,,,,,,,,,,,,,,,,,,,,,,,,,49.746,3.734
Marest-Dampcourt,49.594,3.146,,,,,,,,,,,,,,,,,,,,,,,,,,,,,,,,,,,,49.594,3.146
Mareuil-en-Dôle,49.242,3.561,,,,,,,,,,,,,,,,,,,,,,,,,,,,,,,,,,,,49.242,3.561
Marfontaine,49.808,3.764,,,,,,,,,,,,,,,,,,,,,,,,,,,,,,,,,,,,49.808,3.764
Margival,49.433,3.406,,,,,,,,,,,,,,,,,,,,,,,,,,,,,,,,,,,,49.433,3.406
Marigny-en-Orxois,49.053,3.223,,,,,,,,,,,,,,,,,,,,,,,,,,,,,,,,,,,,49.053,3.223
Marizy-Sainte-Geneviève,49.182,3.198,,,,,,,,,,,,,,,,,,,,,,,,,,,,,,,,,,,,49.182,3.198
Marizy-Saint-Mard,49.182,3.228,,,,,,,,,,,,,,,,,,,,,,,,,,,,,,,,,,,,49.182,3.228
Marle,49.745,3.765,,,,,,,,,,,,,,,,,,,,,,,,,,,,,,,,,,,,49.745,3.765
Marly-Gomont,49.891,3.785,,,,,,,,,,,,,,,,,,,,,,,,,,,,,,,,,,,,49.891,3.785
Martigny,49.867,4.134,,,,,,,,,,,,,,,,,,,,,,,,,,,,,,,,,,,,49.867,4.134
Martigny-Courpierre,49.49,3.687,,,,,,,,,,,,,,,,,,,,,,,,,,,,,,,,,,,,49.49,3.687
Mauregny-en-Haye,49.541,3.798,,,,,,,,,,,,,,,,,,,,,,,,,,,,,,,,,,,,49.541,3.798
Mayot,49.709,3.398,,,,,,,,,,,,,,,,,,,,,,,,,,,,,,,,,,,,49.709,3.398
Mennessis,49.692,3.275,,,,,,,,,,,,,,,,,,,,,,,,,,,,,,,,,,,,49.692,3.275
Mennevret,49.992,3.559,,,,,,,,,,,,,,,,,,,,,,,,,,,,,,,,,,,,49.992,3.559
Mercin-et-Vaux,49.371,3.271,,,,,,,,,,,,,,,,,,,,,,,,,,,,,,,,,,,,49.371,3.271
Merlieux-et-Fouquerolles,49.514,3.499,,,,,,,,,,,,,,,,,,,,,,,,,,,,,,,,,,,,49.514,3.499
Mesbrecourt-Richecourt,49.71,3.537,,,,,,,,,,,,,,,,,,,,,,,,,,,,,,,,,,,,49.71,3.537
Mesnil-Saint-Laurent,49.829,3.364,,,,,,,,,,,,,,,,,,,,,,,,,,,,,,,,,,,,49.829,3.364
Meurival,49.357,3.759,,,,,,,,,,,,,,,,,,,,,,,,,,,,,,,,,,,,49.357,3.759
Mézières-sur-Oise,49.792,3.387,,,,,,,,,,,,,,,,,,,,,,,,,,,,,,,,,,,,49.792,3.387
Mézy-Moulins,49.063,3.512,,,,,,,,,,,,,,,,,,,,,,,,,,,,,,,,,,,,49.063,3.512
Missy-aux-Bois,49.335,3.247,,,,,,,,,,,,,,,,,,,,,,,,,,,,,,,,,,,,49.335,3.247
Missy-lès-Pierrepont,49.628,3.784,,,,,,,,,,,,,,,,,,,,,,,,,,,,,,,,,,,,49.628,3.784
Missy-sur-Aisne,49.386,3.438,,,,,,,,,,,,,,,,,,,,,,,,,,,,,,,,,,,,49.386,3.438
Molain,50.034,3.53,,,,,,,,,,,,,,,,,,,,,,,,,,,,,,,,,,,,50.034,3.53
Molinchart,49.562,3.54,,,,,,,,,,,,,,,,,,,,,,,,,,,,,,,,,,,,49.562,3.54
Monampteuil,49.476,3.574,,,,,,,,,,,,,,,,,,,,,,,,,,,,,,,,,,,,49.476,3.574
Monceau-le-Neuf-et-Faucouzy,49.785,3.631,,,,,,,,,,,,,,,,,,,,,,,,,,,,,,,,,,,,49.785,3.631
Monceau-lès-Leups,49.662,3.486,,,,,,,,,,,,,,,,,,,,,,,,,,,,,,,,,,,,49.662,3.486
Monceau-le-Waast,49.622,3.717,,,,,,,,,,,,,,,,,,,,,,,,,,,,,,,,,,,,49.622,3.717
Monceau-sur-Oise,49.91,3.7,,,,,,,,,,,,,,,,,,,,,,,,,,,,,,,,,,,,49.91,3.7
Mondrepuis,49.964,4.051,,,,,,,,,,,,,,,,,,,,,,,,,,,,,,,,,,,,49.964,4.051
Monnes,49.146,3.229,,,,,,,,,,,,,,,,,,,,,,,,,,,,,,,,,,,,49.146,3.229
Mons-en-Laonnois,49.538,3.555,,,,,,,,,,,,,,,,,,,,,,,,,,,,,,,,,,,,49.538,3.555
Montaigu,49.553,3.844,,,,,,,,,,,,,,,,,,,,,,,,,,,,,,,,,,,,49.553,3.844
Montbavin,49.53,3.513,,,,,,,,,,,,,,,,,,,,,,,,,,,,,,,,,,,,49.53,3.513
Montbrehain,49.964,3.356,,,,,,,,,,,,,,,,,,,,,,,,,,,,,,,,,,,,49.964,3.356
Montchâlons,49.513,3.727,,,,,,,,,,,,,,,,,,,,,,,,,,,,,,,,,,,,49.513,3.727
Montcornet,49.689,4.029,,,,,,,,,,,,,,,,,,,,,,,,,,,,,,,,,,,,49.689,4.029
Mont-d'Origny,49.852,3.527,,,,,,,,,,,,,,,,,,,,,,,,,,,,,,,,,,,,49.852,3.527
Montescourt-Lizerolles,49.736,3.262,,,,,,,,,,,,,,,,,,,,,,,,,,,,,,,,,,,,49.736,3.262
Montfaucon,48.947,3.432,,,,,,,,,,,,,,,,,,,,,,,,,,,,,,,,,,,,48.947,3.432
Montgobert,49.29,3.174,,,,,,,,,,,,,,,,,,,,,,,,,,,,,,,,,,,,49.29,3.174
Montgru-Saint-Hilaire,49.177,3.327,,,,,,,,,,,,,,,,,,,,,,,,,,,,,,,,,,,,49.177,3.327
Monthenault,49.489,3.656,,,,,,,,,,,,,,,,,,,,,,,,,,,,,,,,,,,,49.489,3.656
Monthiers,49.109,3.294,,,,,,,,,,,,,,,,,,,,,,,,,,,,,,,,,,,,49.109,3.294
Monthurel,49.028,3.552,,,,,,,,,,,,,,,,,,,,,,,,,,,,,,,,,,,,49.028,3.552
Montigny-en-Arrouaise,49.912,3.483,,,,,,,,,,,,,,,,,,,,,,,,,,,,,,,,,,,,49.912,3.483
Montigny-l'Allier,49.122,3.107,,,,,,,,,,,,,,,,,,,,,,,,,,,,,,,,,,,,49.122,3.107
Montigny-le-Franc,49.688,3.918,,,,,,,,,,,,,,,,,,,,,,,,,,,,,,,,,,,,49.688,3.918
Montigny-Lengrain,49.373,3.099,,,,,,,,,,,,,,,,,,,,,,,,,,,,,,,,,,,,49.373,3.099
Montigny-lès-Condé,48.983,3.566,,,,,,,,,,,,,,,,,,,,,,,,,,,,,,,,,,,,48.983,3.566
Montigny-sous-Marle,49.741,3.804,,,,,,,,,,,,,,,,,,,,,,,,,,,,,,,,,,,,49.741,3.804
Montigny-sur-Crécy,49.715,3.584,,,,,,,,,,,,,,,,,,,,,,,,,,,,,,,,,,,,49.715,3.584
Montlevon,48.963,3.515,,,,,,,,,,,,,,,,,,,,,,,,,,,,,,,,,,,,48.963,3.515
Montloué,49.668,4.063,,,,,,,,,,,,,,,,,,,,,,,,,,,,,,,,,,,,49.668,4.063
Mont-Notre-Dame,49.292,3.582,,,,,,,,,,,,,,,,,,,,,,,,,,,,,,,,,,,,49.292,3.582
Montreuil-aux-Lions,49.026,3.194,,,,,,,,,,,,,,,,,,,,,,,,,,,,,,,,,,,,49.026,3.194
Mont-Saint-Jean,49.793,4.211,,,,,,,,,,,,,,,,,,,,,,,,,,,,,,,,,,,,49.793,4.211
Mont-Saint-Martin,49.275,3.643,,,,,,,,,,,,,,,,,,,,,,,,,,,,,,,,,,,,49.275,3.643
Mont-Saint-Père,49.082,3.477,,,,,,,,,,,,,,,,,,,,,,,,,,,,,,,,,,,,49.082,3.477
Morcourt,49.876,3.334,,,,,,,,,,,,,,,,,,,,,,,,,,,,,,,,,,,,49.876,3.334
Morgny-en-Thiérache,49.754,4.076,,,,,,,,,,,,,,,,,,,,,,,,,,,,,,,,,,,,49.754,4.076
Morsain,49.462,3.191,,,,,,,,,,,,,,,,,,,,,,,,,,,,,,,,,,,,49.462,3.191
Mortefontaine,49.336,3.08,,,,,,,,,,,,,,,,,,,,,,,,,,,,,,,,,,,,49.336,3.08
Mortiers,49.694,3.664,,,,,,,,,,,,,,,,,,,,,,,,,,,,,,,,,,,,49.694,3.664
Moulins,49.42,3.679,,,,,,,,,,,,,,,,,,,,,,,,,,,,,,,,,,,,49.42,3.679
Moussy-Verneuil,49.413,3.637,,,,,,,,,,,,,,,,,,,,,,,,,,,,,,,,,,,,49.413,3.637
Moÿ-de-l'Aisne,49.75,3.351,,,,,,,,,,,,,,,,,,,,,,,,,,,,,,,,,,,,49.75,3.351
Muret-et-Crouttes,49.278,3.435,,,,,,,,,,,,,,,,,,,,,,,,,,,,,,,,,,,,49.278,3.435
Muscourt,49.36,3.744,,,,,,,,,,,,,,,,,,,,,,,,,,,,,,,,,,,,49.36,3.744
Nampcelles-la-Cour,49.777,4.002,,,,,,,,,,,,,,,,,,,,,,,,,,,,,,,,,,,,49.777,4.002
Nampteuil-sous-Muret,49.305,3.434,,,,,,,,,,,,,,,,,,,,,,,,,,,,,,,,,,,,49.305,3.434
Nanteuil-la-Fosse,49.434,3.448,,,,,,,,,,,,,,,,,,,,,,,,,,,,,,,,,,,,49.434,3.448
Nanteuil-Notre-Dame,49.191,3.412,,,,,,,,,,,,,,,,,,,,,,,,,,,,,,,,,,,,49.191,3.412
Nauroy,49.951,3.259,,,,,,,,,,,,,,,,,,,,,,,,,,,,,,,,,,,,49.951,3.259
Nesles-la-Montagne,49.0,3.446,,,,,,,,,,,,,,,,,,,,,,,,,,,,,,,,,,,,49.0,3.446
Neufchâtel-sur-Aisne,49.437,4.024,,,,,,,,,,,,,,,,,,,,,,,,,,,,,,,,,,,,49.437,4.024
Neuflieux,49.616,3.16,,,,,,,,,,,,,,,,,,,,,,,,,,,,,,,,,,,,49.616,3.16
Neuilly-Saint-Front,49.163,3.264,,,,,,,,,,,,,,,,,,,,,,,,,,,,,,,,,,,,49.163,3.264
Neuve-Maison,49.929,4.041,,,,,,,,,,,,,,,,,,,,,,,,,,,,,,,,,,,,49.929,4.041
La Neuville-Bosmont,49.714,3.834,,,,,,,,,,,,,,,,,,,,,,,,,,,,,,,,,,,,49.714,3.834
La Neuville-en-Beine,49.676,3.156,,,,,,,,,,,,,,,,,,,,,,,,,,,,,,,,,,,,49.676,3.156
La Neuville-Housset,49.788,3.732,,,,,,,,,,,,,,,,,,,,,,,,,,,,,,,,,,,,49.788,3.732
La Neuville-lès-Dorengt,49.983,3.686,,,,,,,,,,,,,,,,,,,,,,,,,,,,,,,,,,,,49.983,3.686
Neuville-Saint-Amand,49.821,3.334,,,,,,,,,,,,,,,,,,,,,,,,,,,,,,,,,,,,49.821,3.334
Neuville-sur-Ailette,49.47,3.698,,,,,,,,,,,,,,,,,,,,,,,,,,,,,,,,,,,,49.47,3.698
Neuville-sur-Margival,49.455,3.399,,,,,,,,,,,,,,,,,,,,,,,,,,,,,,,,,,,,49.455,3.399
Neuvillette,49.855,3.468,,,,,,,,,,,,,,,,,,,,,,,,,,,,,,,,,,,,49.855,3.468
Nizy-le-Comte,49.574,4.031,,,,,,,,,,,,,,,,,,,,,,,,,,,,,,,,,,,,49.574,4.031
Nogentel,49.014,3.403,,,,,,,,,,,,,,,,,,,,,,,,,,,,,,,,,,,,49.014,3.403
Nogent-l'Artaud,48.943,3.333,,,,,,,,,,,,,,,,,,,,,,,,,,,,,,,,,,,,48.943,3.333
Noircourt,49.669,4.094,,,,,,,,,,,,,,,,,,,,,,,,,,,,,,,,,,,,49.669,4.094
Noroy-sur-Ourcq,49.204,3.207,,,,,,,,,,,,,,,,,,,,,,,,,,,,,,,,,,,,49.204,3.207
Le Nouvion-en-Thiérache,50.009,3.809,,,,,,,,,,,,,,,,,,,,,,,,,,,,,,,,,,,,50.009,3.809
Nouvion-et-Catillon,49.708,3.494,,,,,,,,,,,,,,,,,,,,,,,,,,,,,,,,,,,,49.708,3.494
Nouvion-le-Comte,49.708,3.461,,,,,,,,,,,,,,,,,,,,,,,,,,,,,,,,,,,,49.708,3.461
Nouvion-le-Vineux,49.509,3.605,,,,,,,,,,,,,,,,,,,,,,,,,,,,,,,,,,,,49.509,3.605
Nouvron-Vingré,49.433,3.188,,,,,,,,,,,,,,,,,,,,,,,,,,,,,,,,,,,,49.433,3.188
Noyales,49.908,3.538,,,,,,,,,,,,,,,,,,,,,,,,,,,,,,,,,,,,49.908,3.538
Bernoy-le-Château,49.332,3.334,,,,,,,,,,,,,,,,,,,,,,,,,,,,,,,,,,,,49.332,3.334
Œuilly,49.393,3.682,,,,,,,,,,,,,,,,,,,,,,,,,,,,,,,,,,,,49.393,3.682
Ognes,49.614,3.191,,,,,,,,,,,,,,,,,,,,,,,,,,,,,,,,,,,,49.614,3.191
Ohis,49.918,4.012,,,,,,,,,,,,,,,,,,,,,,,,,,,,,,,,,,,,49.918,4.012
Oigny-en-Valois,49.214,3.13,,,,,,,,,,,,,,,,,,,,,,,,,,,,,,,,,,,,49.214,3.13
Oisy,50.023,3.653,,,,,,,,,,,,,,,,,,,,,,,,,,,,,,,,,,,,50.023,3.653
Ollezy,49.73,3.146,,,,,,,,,,,,,,,,,,,,,,,,,,,,,,,,,,,,49.73,3.146
Omissy,49.88,3.298,,,,,,,,,,,,,,,,,,,,,,,,,,,,,,,,,,,,49.88,3.298
Orainville,49.376,4.016,,,,,,,,,,,,,,,,,,,,,,,,,,,,,,,,,,,,49.376,4.016
Orgeval,49.504,3.703,,,,,,,,,,,,,,,,,,,,,,,,,,,,,,,,,,,,49.504,3.703
Origny-en-Thiérache,49.886,4.011,,,,,,,,,,,,,,,,,,,,,,,,,,,,,,,,,,,,49.886,4.011
Origny-Sainte-Benoite,49.827,3.529,,,,,,,,,,,,,,,,,,,,,,,,,,,,,,,,,,,,49.827,3.529
Osly-Courtil,49.4,3.237,,,,,,,,,,,,,,,,,,,,,,,,,,,,,,,,,,,,49.4,3.237
Ostel,49.43,3.565,,,,,,,,,,,,,,,,,,,,,,,,,,,,,,,,,,,,49.43,3.565
Oulches-la-Vallée-Foulon,49.431,3.74,,,,,,,,,,,,,,,,,,,,,,,,,,,,,,,,,,,,49.431,3.74
Oulchy-la-Ville,49.21,3.341,,,,,,,,,,,,,,,,,,,,,,,,,,,,,,,,,,,,49.21,3.341
Oulchy-le-Château,49.207,3.382,,,,,,,,,,,,,,,,,,,,,,,,,,,,,,,,,,,,49.207,3.382
Paars,49.33,3.603,,,,,,,,,,,,,,,,,,,,,,,,,,,,,,,,,,,,49.33,3.603
Paissy,49.426,3.702,,,,,,,,,,,,,,,,,,,,,,,,,,,,,,,,,,,,49.426,3.702
Pancy-Courtecon,49.461,3.65,,,,,,,,,,,,,,,,,,,,,,,,,,,,,,,,,,,,49.461,3.65
Papleux,50.017,3.88,,,,,,,,,,,,,,,,,,,,,,,,,,,,,,,,,,,,50.017,3.88
Parcy-et-Tigny,49.27,3.329,,,,,,,,,,,,,,,,,,,,,,,,,,,,,,,,,,,,49.27,3.329
Parfondeval,49.744,4.162,,,,,,,,,,,,,,,,,,,,,,,,,,,,,,,,,,,,49.744,4.162
Parfondru,49.538,3.704,,,,,,,,,,,,,,,,,,,,,,,,,,,,,,,,,,,,49.538,3.704
Pargnan,49.394,3.703,,,,,,,,,,,,,,,,,,,,,,,,,,,,,,,,,,,,49.394,3.703
Pargny-Filain,49.463,3.539,,,,,,,,,,,,,,,,,,,,,,,,,,,,,,,,,,,,49.463,3.539
Pargny-la-Dhuys,48.955,3.564,,,,,,,,,,,,,,,,,,,,,,,,,,,,,,,,,,,,48.955,3.564
Pargny-les-Bois,49.732,3.618,,,,,,,,,,,,,,,,,,,,,,,,,,,,,,,,,,,,49.732,3.618
Parpeville,49.794,3.564,,,,,,,,,,,,,,,,,,,,,,,,,,,,,,,,,,,,49.794,3.564
Pasly,49.402,3.298,,,,,,,,,,,,,,,,,,,,,,,,,,,,,,,,,,,,49.402,3.298
Passy-en-Valois,49.162,3.184,,,,,,,,,,,,,,,,,,,,,,,,,,,,,,,,,,,,49.162,3.184
Passy-sur-Marne,49.066,3.574,,,,,,,,,,,,,,,,,,,,,,,,,,,,,,,,,,,,49.066,3.574
Pavant,48.953,3.284,,,,,,,,,,,,,,,,,,,,,,,,,,,,,,,,,,,,48.953,3.284
Pernant,49.376,3.23,,,,,,,,,,,,,,,,,,,,,,,,,,,,,,,,,,,,49.376,3.23
Pierremande,49.567,3.258,,,,,,,,,,,,,,,,,,,,,,,,,,,,,,,,,,,,49.567,3.258
Pierrepont,49.648,3.788,,,,,,,,,,,,,,,,,,,,,,,,,,,,,,,,,,,,49.648,3.788
Pignicourt,49.409,4.03,,,,,,,,,,,,,,,,,,,,,,,,,,,,,,,,,,,,49.409,4.03
Pinon,49.488,3.462,,,,,,,,,,,,,,,,,,,,,,,,,,,,,,,,,,,,49.488,3.462
Pithon,49.756,3.104,,,,,,,,,,,,,,,,,,,,,,,,,,,,,,,,,,,,49.756,3.104
Pleine-Selve,49.797,3.526,,,,,,,,,,,,,,,,,,,,,,,,,,,,,,,,,,,,49.797,3.526
Le Plessier-Huleu,49.239,3.348,,,,,,,,,,,,,,,,,,,,,,,,,,,,,,,,,,,,49.239,3.348
Ploisy,49.331,3.275,,,,,,,,,,,,,,,,,,,,,,,,,,,,,,,,,,,,49.331,3.275
Plomion,49.819,4.02,,,,,,,,,,,,,,,,,,,,,,,,,,,,,,,,,,,,49.819,4.02
Ployart-et-Vaurseine,49.493,3.74,,,,,,,,,,,,,,,,,,,,,,,,,,,,,,,,,,,,49.493,3.74
Pommiers,49.392,3.279,,,,,,,,,,,,,,,,,,,,,,,,,,,,,,,,,,,,49.392,3.279
Pont-Arcy,49.392,3.62,,,,,,,,,,,,,,,,,,,,,,,,,,,,,,,,,,,,49.392,3.62
Pontavert,49.418,3.82,,,,,,,,,,,,,,,,,,,,,,,,,,,,,,,,,,,,49.418,3.82
Pontru,49.922,3.201,,,,,,,,,,,,,,,,,,,,,,,,,,,,,,,,,,,,49.922,3.201
Pontruet,49.915,3.23,,,,,,,,,,,,,,,,,,,,,,,,,,,,,,,,,,,,49.915,3.23
Pont-Saint-Mard,49.494,3.279,,,,,,,,,,,,,,,,,,,,,,,,,,,,,,,,,,,,49.494,3.279
Pouilly-sur-Serre,49.678,3.586,,,,,,,,,,,,,,,,,,,,,,,,,,,,,,,,,,,,49.678,3.586
Prémont,50.014,3.397,,,,,,,,,,,,,,,,,,,,,,,,,,,,,,,,,,,,50.014,3.397
Prémontré,49.549,3.418,,,,,,,,,,,,,,,,,,,,,,,,,,,,,,,,,,,,49.549,3.418
Presles-et-Boves,49.39,3.54,,,,,,,,,,,,,,,,,,,,,,,,,,,,,,,,,,,,49.39,3.54
Presles-et-Thierny,49.514,3.625,,,,,,,,,,,,,,,,,,,,,,,,,,,,,,,,,,,,49.514,3.625
Priez,49.131,3.263,,,,,,,,,,,,,,,,,,,,,,,,,,,,,,,,,,,,49.131,3.263
Prisces,49.772,3.863,,,,,,,,,,,,,,,,,,,,,,,,,,,,,,,,,,,,49.772,3.863
Proisy,49.891,3.752,,,,,,,,,,,,,,,,,,,,,,,,,,,,,,,,,,,,49.891,3.752
Proix,49.902,3.574,,,,,,,,,,,,,,,,,,,,,,,,,,,,,,,,,,,,49.902,3.574
Prouvais,49.476,3.972,,,,,,,,,,,,,,,,,,,,,,,,,,,,,,,,,,,,49.476,3.972
Proviseux-et-Plesnoy,49.478,4.016,,,,,,,,,,,,,,,,,,,,,,,,,,,,,,,,,,,,49.478,4.016
Puiseux-en-Retz,49.293,3.134,,,,,,,,,,,,,,,,,,,,,,,,,,,,,,,,,,,,49.293,3.134
Puisieux-et-Clanlieu,49.847,3.664,,,,,,,,,,,,,,,,,,,,,,,,,,,,,,,,,,,,49.847,3.664
Quierzy,49.564,3.146,,,,,,,,,,,,,,,,,,,,,,,,,,,,,,,,,,,,49.564,3.146
Quincy-Basse,49.509,3.385,,,,,,,,,,,,,,,,,,,,,,,,,,,,,,,,,,,,49.509,3.385
Quincy-sous-le-Mont,49.308,3.559,,,,,,,,,,,,,,,,,,,,,,,,,,,,,,,,,,,,49.308,3.559
Raillimont,49.702,4.159,,,,,,,,,,,,,,,,,,,,,,,,,,,,,,,,,,,,49.702,4.159
Ramicourt,49.958,3.331,,,,,,,,,,,,,,,,,,,,,,,,,,,,,,,,,,,,49.958,3.331
Regny,49.834,3.421,,,,,,,,,,,,,,,,,,,,,,,,,,,,,,,,,,,,49.834,3.421
Remaucourt,49.895,3.35,,,,,,,,,,,,,,,,,,,,,,,,,,,,,,,,,,,,49.895,3.35
Remies,49.679,3.525,,,,,,,,,,,,,,,,,,,,,,,,,,,,,,,,,,,,49.679,3.525
Remigny,49.714,3.295,,,,,,,,,,,,,,,,,,,,,,,,,,,,,,,,,,,,49.714,3.295
Renansart,49.734,3.453,,,,,,,,,,,,,,,,,,,,,,,,,,,,,,,,,,,,49.734,3.453
Renneval,49.739,4.037,,,,,,,,,,,,,,,,,,,,,,,,,,,,,,,,,,,,49.739,4.037
Résigny,49.741,4.21,,,,,,,,,,,,,,,,,,,,,,,,,,,,,,,,,,,,49.741,4.21
Ressons-le-Long,49.388,3.141,,,,,,,,,,,,,,,,,,,,,,,,,,,,,,,,,,,,49.388,3.141
Retheuil,49.319,3.004,,,,,,,,,,,,,,,,,,,,,,,,,,,,,,,,,,,,49.319,3.004
Reuilly-Sauvigny,49.051,3.564,,,,,,,,,,,,,,,,,,,,,,,,,,,,,,,,,,,,49.051,3.564
Ribeauville,50.037,3.588,,,,,,,,,,,,,,,,,,,,,,,,,,,,,,,,,,,,50.037,3.588
Ribemont,49.788,3.47,,,,,,,,,,,,,,,,,,,,,,,,,,,,,,,,,,,,49.788,3.47
Rocourt-Saint-Martin,49.145,3.389,,,,,,,,,,,,,,,,,,,,,,,,,,,,,,,,,,,,49.145,3.389
Rocquigny,50.019,3.973,,,,,,,,,,,,,,,,,,,,,,,,,,,,,,,,,,,,50.019,3.973
Rogécourt,49.649,3.416,,,,,,,,,,,,,,,,,,,,,,,,,,,,,,,,,,,,49.649,3.416
Rogny,49.767,3.821,,,,,,,,,,,,,,,,,,,,,,,,,,,,,,,,,,,,49.767,3.821
Romeny-sur-Marne,48.985,3.334,,,,,,,,,,,,,,,,,,,,,,,,,,,,,,,,,,,,48.985,3.334
Romery,49.888,3.733,,,,,,,,,,,,,,,,,,,,,,,,,,,,,,,,,,,,49.888,3.733
Ronchères,49.14,3.602,,,,,,,,,,,,,,,,,,,,,,,,,,,,,,,,,,,,49.14,3.602
Roucy,49.375,3.82,,,,,,,,,,,,,,,,,,,,,,,,,,,,,,,,,,,,49.375,3.82
Rougeries,49.806,3.787,,,,,,,,,,,,,,,,,,,,,,,,,,,,,,,,,,,,49.806,3.787
Roupy,49.812,3.182,,,,,,,,,,,,,,,,,,,,,,,,,,,,,,,,,,,,49.812,3.182
Rouvroy,49.858,3.333,,,,,,,,,,,,,,,,,,,,,,,,,,,,,,,,,,,,49.858,3.333
Rouvroy-sur-Serre,49.715,4.176,,,,,,,,,,,,,,,,,,,,,,,,,,,,,,,,,,,,49.715,4.176
Royaucourt-et-Chailvet,49.512,3.538,,,,,,,,,,,,,,,,,,,,,,,,,,,,,,,,,,,,49.512,3.538
Rozet-Saint-Albin,49.198,3.297,,,,,,,,,,,,,,,,,,,,,,,,,,,,,,,,,,,,49.198,3.297
Rozières-sur-Crise,49.323,3.371,,,,,,,,,,,,,,,,,,,,,,,,,,,,,,,,,,,,49.323,3.371
Rozoy-Bellevalle,48.924,3.45,,,,,,,,,,,,,,,,,,,,,,,,,,,,,,,,,,,,48.924,3.45
Grand-Rozoy,49.242,3.382,,,,,,,,,,,,,,,,,,,,,,,,,,,,,,,,,,,,49.242,3.382
Rozoy-sur-Serre,49.706,4.131,,,,,,,,,,,,,,,,,,,,,,,,,,,,,,,,,,,,49.706,4.131
Saconin-et-Breuil,49.351,3.247,,,,,,,,,,,,,,,,,,,,,,,,,,,,,,,,,,,,49.351,3.247
Sains-Richaumont,49.828,3.705,,,,,,,,,,,,,,,,,,,,,,,,,,,,,,,,,,,,49.828,3.705
Saint-Algis,49.894,3.826,,,,,,,,,,,,,,,,,,,,,,,,,,,,,,,,,,,,49.894,3.826
Saint-Aubin,49.51,3.188,,,,,,,,,,,,,,,,,,,,,,,,,,,,,,,,,,,,49.51,3.188
Saint-Bandry,49.364,3.15,,,,,,,,,,,,,,,,,,,,,,,,,,,,,,,,,,,,49.364,3.15
Saint-Christophe-à-Berry,49.429,3.13,,,,,,,,,,,,,,,,,,,,,,,,,,,,,,,,,,,,49.429,3.13
Saint-Clément,49.775,4.073,,,,,,,,,,,,,,,,,,,,,,,,,,,,,,,,,,,,49.775,4.073
Sainte-Croix,49.48,3.781,,,,,,,,,,,,,,,,,,,,,,,,,,,,,,,,,,,,49.48,3.781
Saint-Erme-Outre-et-Ramecourt,49.518,3.864,,,,,,,,,,,,,,,,,,,,,,,,,,,,,,,,,,,,49.518,3.864
Saint-Eugène,49.016,3.517,,,,,,,,,,,,,,,,,,,,,,,,,,,,,,,,,,,,49.016,3.517
Sainte-Geneviève,49.725,4.074,,,,,,,,,,,,,,,,,,,,,,,,,,,,,,,,,,,,49.725,4.074
Saint-Gengoulph,49.119,3.215,,,,,,,,,,,,,,,,,,,,,,,,,,,,,,,,,,,,49.119,3.215
Saint-Gobain,49.595,3.394,,,,,,,,,,,,,,,,,,,,,,,,,,,,,,,,,,,,49.595,3.394
Saint-Gobert,49.804,3.832,,,,,,,,,,,,,,,,,,,,,,,,,,,,,,,,,,,,49.804,3.832
Saint-Mard,49.381,3.589,,,,,,,,,,,,,,,,,,,,,,,,,,,,,,,,,,,,49.381,3.589
Saint-Martin-Rivière,50.044,3.555,,,,,,,,,,,,,,,,,,,,,,,,,,,,,,,,,,,,50.044,3.555
Saint-Michel,49.926,4.153,,,,,,,,,,,,,,,,,,,,,,,,,,,,,,,,,,,,49.926,4.153
Saint-Nicolas-aux-Bois,49.597,3.439,,,,,,,,,,,,,,,,,,,,,,,,,,,,,,,,,,,,49.597,3.439
Saint-Paul-aux-Bois,49.544,3.203,,,,,,,,,,,,,,,,,,,,,,,,,,,,,,,,,,,,49.544,3.203
Saint-Pierre-Aigle,49.312,3.196,,,,,,,,,,,,,,,,,,,,,,,,,,,,,,,,,,,,49.312,3.196
Saint-Pierre-lès-Franqueville,49.824,3.814,,,,,,,,,,,,,,,,,,,,,,,,,,,,,,,,,,,,49.824,3.814
Saint-Pierremont,49.714,3.876,,,,,,,,,,,,,,,,,,,,,,,,,,,,,,,,,,,,49.714,3.876
Sainte-Preuve,49.617,3.911,,,,,,,,,,,,,,,,,,,,,,,,,,,,,,,,,,,,49.617,3.911
Saint-Quentin,49.847,3.278,,,,,,,,,,,,,,,,,,,,,,,,,,,,,,,,,,,,49.847,3.278
Saint-Rémy-Blanzy,49.246,3.308,,,,,,,,,,,,,,,,,,,,,,,,,,,,,,,,,,,,49.246,3.308
Saint-Simon,49.746,3.183,,,,,,,,,,,,,,,,,,,,,,,,,,,,,,,,,,,,49.746,3.183
Saint-Thomas,49.501,3.819,,,,,,,,,,,,,,,,,,,,,,,,,,,,,,,,,,,,49.501,3.819
Samoussy,49.587,3.743,,,,,,,,,,,,,,,,,,,,,,,,,,,,,,,,,,,,49.587,3.743
Sancy-les-Cheminots,49.439,3.476,,,,,,,,,,,,,,,,,,,,,,,,,,,,,,,,,,,,49.439,3.476
Saponay,49.214,3.484,,,,,,,,,,,,,,,,,,,,,,,,,,,,,,,,,,,,49.214,3.484
Saulchery,48.976,3.313,,,,,,,,,,,,,,,,,,,,,,,,,,,,,,,,,,,,48.976,3.313
Savy,49.834,3.198,,,,,,,,,,,,,,,,,,,,,,,,,,,,,,,,,,,,49.834,3.198
Seboncourt,49.963,3.494,,,,,,,,,,,,,,,,,,,,,,,,,,,,,,,,,,,,49.963,3.494
Selens,49.494,3.206,,,,,,,,,,,,,,,,,,,,,,,,,,,,,,,,,,,,49.494,3.206
La Selve,49.57,3.995,,,,,,,,,,,,,,,,,,,,,,,,,,,,,,,,,,,,49.57,3.995
Septmonts,49.338,3.362,,,,,,,,,,,,,,,,,,,,,,,,,,,,,,,,,,,,49.338,3.362
Septvaux,49.57,3.387,,,,,,,,,,,,,,,,,,,,,,,,,,,,,,,,,,,,49.57,3.387
Sequehart,49.932,3.341,,,,,,,,,,,,,,,,,,,,,,,,,,,,,,,,,,,,49.932,3.341
Serain,50.025,3.363,,,,,,,,,,,,,,,,,,,,,,,,,,,,,,,,,,,,50.025,3.363
Seraucourt-le-Grand,49.78,3.218,,,,,,,,,,,,,,,,,,,,,,,,,,,,,,,,,,,,49.78,3.218
Serches,49.332,3.45,,,,,,,,,,,,,,,,,,,,,,,,,,,,,,,,,,,,49.332,3.45
Sergy,49.183,3.571,,,,,,,,,,,,,,,,,,,,,,,,,,,,,,,,,,,,49.183,3.571
Seringes-et-Nesles,49.212,3.559,,,,,,,,,,,,,,,,,,,,,,,,,,,,,,,,,,,,49.212,3.559
Sermoise,49.372,3.447,,,,,,,,,,,,,,,,,,,,,,,,,,,,,,,,,,,,49.372,3.447
Serval,49.352,3.683,,,,,,,,,,,,,,,,,,,,,,,,,,,,,,,,,,,,49.352,3.683
Servais,49.619,3.342,,,,,,,,,,,,,,,,,,,,,,,,,,,,,,,,,,,,49.619,3.342
Séry-lès-Mézières,49.765,3.423,,,,,,,,,,,,,,,,,,,,,,,,,,,,,,,,,,,,49.765,3.423
Silly-la-Poterie,49.196,3.15,,,,,,,,,,,,,,,,,,,,,,,,,,,,,,,,,,,,49.196,3.15
Sinceny,49.591,3.269,,,,,,,,,,,,,,,,,,,,,,,,,,,,,,,,,,,,49.591,3.269
Sissonne,49.564,3.92,,,,,,,,,,,,,,,,,,,,,,,,,,,,,,,,,,,,49.564,3.92
Sissy,49.811,3.421,,,,,,,,,,,,,,,,,,,,,,,,,,,,,,,,,,,,49.811,3.421
Soissons,49.379,3.325,,,,,,,,,,,,,,,,,,,,,,,,,,,,,,,,,,,,49.379,3.325
Soize,49.698,4.086,,,,,,,,,,,,,,,,,,,,,,,,,,,,,,,,,,,,49.698,4.086
Sommelans,49.135,3.293,,,,,,,,,,,,,,,,,,,,,,,,,,,,,,,,,,,,49.135,3.293
Sommeron,49.957,3.946,,,,,,,,,,,,,,,,,,,,,,,,,,,,,,,,,,,,49.957,3.946
Sommette-Eaucourt,49.727,3.12,,,,,,,,,,,,,,,,,,,,,,,,,,,,,,,,,,,,49.727,3.12
Sons-et-Ronchères,49.769,3.668,,,,,,,,,,,,,,,,,,,,,,,,,,,,,,,,,,,,49.769,3.668
Sorbais,49.914,3.883,,,,,,,,,,,,,,,,,,,,,,,,,,,,,,,,,,,,49.914,3.883
Soucy,49.321,3.123,,,,,,,,,,,,,,,,,,,,,,,,,,,,,,,,,,,,49.321,3.123
Soupir,49.411,3.6,,,,,,,,,,,,,,,,,,,,,,,,,,,,,,,,,,,,49.411,3.6
Le Sourd,49.866,3.752,,,,,,,,,,,,,,,,,,,,,,,,,,,,,,,,,,,,49.866,3.752
Surfontaine,49.747,3.48,,,,,,,,,,,,,,,,,,,,,,,,,,,,,,,,,,,,49.747,3.48
Taillefontaine,49.31,3.05,,,,,,,,,,,,,,,,,,,,,,,,,,,,,,,,,,,,49.31,3.05
Tannières,49.287,3.55,,,,,,,,,,,,,,,,,,,,,,,,,,,,,,,,,,,,49.287,3.55
Tartiers,49.44,3.232,,,,,,,,,,,,,,,,,,,,,,,,,,,,,,,,,,,,49.44,3.232
Tavaux-et-Pontséricourt,49.73,3.919,,,,,,,,,,,,,,,,,,,,,,,,,,,,,,,,,,,,49.73,3.919
Tergnier,49.657,3.299,,,,,,,,,,,,,,,,,,,,,,,,,,,,,,,,,,,,49.657,3.299
Terny-Sorny,49.447,3.369,,,,,,,,,,,,,,,,,,,,,,,,,,,,,,,,,,,,49.447,3.369
Thenailles,49.815,3.952,,,,,,,,,,,,,,,,,,,,,,,,,,,,,,,,,,,,49.815,3.952
Thenelles,49.832,3.459,,,,,,,,,,,,,,,,,,,,,,,,,,,,,,,,,,,,49.832,3.459
Thiernu,49.765,3.78,,,,,,,,,,,,,,,,,,,,,,,,,,,,,,,,,,,,49.765,3.78
Le Thuel,49.641,4.089,,,,,,,,,,,,,,,,,,,,,,,,,,,,,,,,,,,,49.641,4.089
Torcy-en-Valois,49.083,3.274,,,,,,,,,,,,,,,,,,,,,,,,,,,,,,,,,,,,49.083,3.274
Toulis-et-Attencourt,49.697,3.75,,,,,,,,,,,,,,,,,,,,,,,,,,,,,,,,,,,,49.697,3.75
Travecy,49.686,3.345,,,,,,,,,,,,,,,,,,,,,,,,,,,,,,,,,,,,49.686,3.345
Trefcon,49.859,3.089,,,,,,,,,,,,,,,,,,,,,,,,,,,,,,,,,,,,49.859,3.089
Trélou-sur-Marne,49.092,3.602,,,,,,,,,,,,,,,,,,,,,,,,,,,,,,,,,,,,49.092,3.602
Troësnes,49.198,3.177,,,,,,,,,,,,,,,,,,,,,,,,,,,,,,,,,,,,49.198,3.177
Trosly-Loire,49.518,3.232,,,,,,,,,,,,,,,,,,,,,,,,,,,,,,,,,,,,49.518,3.232
Trucy,49.472,3.611,,,,,,,,,,,,,,,,,,,,,,,,,,,,,,,,,,,,49.472,3.611
Tugny-et-Pont,49.77,3.161,,,,,,,,,,,,,,,,,,,,,,,,,,,,,,,,,,,,49.77,3.161
Tupigny,49.971,3.594,,,,,,,,,,,,,,,,,,,,,,,,,,,,,,,,,,,,49.971,3.594
Ugny-le-Gay,49.661,3.157,,,,,,,,,,,,,,,,,,,,,,,,,,,,,,,,,,,,49.661,3.157
Urcel,49.494,3.557,,,,,,,,,,,,,,,,,,,,,,,,,,,,,,,,,,,,49.494,3.557
Urvillers,49.79,3.316,,,,,,,,,,,,,,,,,,,,,,,,,,,,,,,,,,,,49.79,3.316
Vadencourt,49.923,3.574,,,,,,,,,,,,,,,,,,,,,,,,,,,,,,,,,,,,49.923,3.574
Vailly-sur-Aisne,49.411,3.52,,,,,,,,,,,,,,,,,,,,,,,,,,,,,,,,,,,,49.411,3.52
La Vallée-au-Blé,49.857,3.794,,,,,,,,,,,,,,,,,,,,,,,,,,,,,,,,,,,,49.857,3.794
La Vallée-Mulâtre,50.026,3.561,,,,,,,,,,,,,,,,,,,,,,,,,,,,,,,,,,,,50.026,3.561
Variscourt,49.415,3.981,,,,,,,,,,,,,,,,,,,,,,,,,,,,,,,,,,,,49.415,3.981
Vassens,49.476,3.156,,,,,,,,,,,,,,,,,,,,,,,,,,,,,,,,,,,,49.476,3.156
Vasseny,49.356,3.489,,,,,,,,,,,,,,,,,,,,,,,,,,,,,,,,,,,,49.356,3.489
Vassogne,49.42,3.73,,,,,,,,,,,,,,,,,,,,,,,,,,,,,,,,,,,,49.42,3.73
Vaucelles-et-Beffecourt,49.521,3.559,,,,,,,,,,,,,,,,,,,,,,,,,,,,,,,,,,,,49.521,3.559
Vaudesson,49.475,3.487,,,,,,,,,,,,,,,,,,,,,,,,,,,,,,,,,,,,49.475,3.487
Vauxrezis,49.42,3.277,,,,,,,,,,,,,,,,,,,,,,,,,,,,,,,,,,,,49.42,3.277
Vauxaillon,49.477,3.408,,,,,,,,,,,,,,,,,,,,,,,,,,,,,,,,,,,,49.477,3.408
Vaux-Andigny,50.011,3.523,,,,,,,,,,,,,,,,,,,,,,,,,,,,,,,,,,,,50.011,3.523
Vauxbuin,49.357,3.296,,,,,,,,,,,,,,,,,,,,,,,,,,,,,,,,,,,,49.357,3.296
Vaux-en-Vermandois,49.824,3.136,,,,,,,,,,,,,,,,,,,,,,,,,,,,,,,,,,,,49.824,3.136
Vauxtin,49.346,3.602,,,,,,,,,,,,,,,,,,,,,,,,,,,,,,,,,,,,49.346,3.602
Vendelles,49.908,3.138,,,,,,,,,,,,,,,,,,,,,,,,,,,,,,,,,,,,49.908,3.138
Vendeuil,49.72,3.345,,,,,,,,,,,,,,,,,,,,,,,,,,,,,,,,,,,,49.72,3.345
Vendhuile,50.012,3.209,,,,,,,,,,,,,,,,,,,,,,,,,,,,,,,,,,,,50.012,3.209
Vendières,48.873,3.443,,,,,,,,,,,,,,,,,,,,,,,,,,,,,,,,,,,,48.873,3.443
Vendresse-Beaulne,49.432,3.657,,,,,,,,,,,,,,,,,,,,,,,,,,,,,,,,,,,,49.432,3.657
Vénérolles,49.99,3.63,,,,,,,,,,,,,,,,,,,,,,,,,,,,,,,,,,,,49.99,3.63
Venizel,49.368,3.392,,,,,,,,,,,,,,,,,,,,,,,,,,,,,,,,,,,,49.368,3.392
Verdilly,49.074,3.422,,,,,,,,,,,,,,,,,,,,,,,,,,,,,,,,,,,,49.074,3.422
Le Verguier,49.923,3.169,,,,,,,,,,,,,,,,,,,,,,,,,,,,,,,,,,,,49.923,3.169
Grand-Verly,49.943,3.581,,,,,,,,,,,,,,,,,,,,,,,,,,,,,,,,,,,,49.943,3.581
Petit-Verly,49.958,3.563,,,,,,,,,,,,,,,,,,,,,,,,,,,,,,,,,,,,49.958,3.563
Vermand,49.884,3.152,,,,,,,,,,,,,,,,,,,,,,,,,,,,,,,,,,,,49.884,3.152
Verneuil-sous-Coucy,49.545,3.319,,,,,,,,,,,,,,,,,,,,,,,,,,,,,,,,,,,,49.545,3.319
Verneuil-sur-Serre,49.644,3.679,,,,,,,,,,,,,,,,,,,,,,,,,,,,,,,,,,,,49.644,3.679
Versigny,49.658,3.443,,,,,,,,,,,,,,,,,,,,,,,,,,,,,,,,,,,,49.658,3.443
Vervins,49.835,3.925,,,,,,,,,,,,,,,,,,,,,,,,,,,,,,,,,,,,49.835,3.925
Vesles-et-Caumont,49.675,3.79,,,,,,,,,,,,,,,,,,,,,,,,,,,,,,,,,,,,49.675,3.79
Veslud,49.539,3.731,,,,,,,,,,,,,,,,,,,,,,,,,,,,,,,,,,,,49.539,3.731
Veuilly-la-Poterie,49.083,3.219,,,,,,,,,,,,,,,,,,,,,,,,,,,,,,,,,,,,49.083,3.219
Vézaponin,49.467,3.223,,,,,,,,,,,,,,,,,,,,,,,,,,,,,,,,,,,,49.467,3.223
Vézilly,49.187,3.683,,,,,,,,,,,,,,,,,,,,,,,,,,,,,,,,,,,,49.187,3.683
Vic-sur-Aisne,49.411,3.109,,,,,,,,,,,,,,,,,,,,,,,,,,,,,,,,,,,,49.411,3.109
Vichel-Nanteuil,49.182,3.299,,,,,,,,,,,,,,,,,,,,,,,,,,,,,,,,,,,,49.182,3.299
Viel-Arcy,49.379,3.626,,,,,,,,,,,,,,,,,,,,,,,,,,,,,,,,,,,,49.379,3.626
Viels-Maisons,48.907,3.396,,,,,,,,,,,,,,,,,,,,,,,,,,,,,,,,,,,,48.907,3.396
Vierzy,49.287,3.278,,,,,,,,,,,,,,,,,,,,,,,,,,,,,,,,,,,,49.287,3.278
Viffort,48.958,3.47,,,,,,,,,,,,,,,,,,,,,,,,,,,,,,,,,,,,48.958,3.47
Vigneux-Hocquet,49.744,3.995,,,,,,,,,,,,,,,,,,,,,,,,,,,,,,,,,,,,49.744,3.995
La Ville-aux-Bois-lès-Dizy,49.663,3.982,,,,,,,,,,,,,,,,,,,,,,,,,,,,,,,,,,,,49.663,3.982
La Ville-aux-Bois-lès-Pontavert,49.427,3.851,,,,,,,,,,,,,,,,,,,,,,,,,,,,,,,,,,,,49.427,3.851
Villemontoire,49.3,3.322,,,,,,,,,,,,,,,,,,,,,,,,,,,,,,,,,,,,49.3,3.322
Villeneuve-Saint-Germain,49.379,3.362,,,,,,,,,,,,,,,,,,,,,,,,,,,,,,,,,,,,49.379,3.362
Villeneuve-sur-Fère,49.171,3.476,,,,,,,,,,,,,,,,,,,,,,,,,,,,,,,,,,,,49.171,3.476
Villequier-Aumont,49.661,3.198,,,,,,,,,,,,,,,,,,,,,,,,,,,,,,,,,,,,49.661,3.198
Villeret,49.949,3.188,,,,,,,,,,,,,,,,,,,,,,,,,,,,,,,,,,,,49.949,3.188
Villers-Agron-Aiguizy,49.163,3.716,,,,,,,,,,,,,,,,,,,,,,,,,,,,,,,,,,,,49.163,3.716
Villers-Cotterêts,49.239,3.096,,,,,,,,,,,,,,,,,,,,,,,,,,,,,,,,,,,,49.239,3.096
Villers-Hélon,49.265,3.268,,,,,,,,,,,,,,,,,,,,,,,,,,,,,,,,,,,,49.265,3.268
Villers-le-Sec,49.771,3.505,,,,,,,,,,,,,,,,,,,,,,,,,,,,,,,,,,,,49.771,3.505
Villers-lès-Guise,49.926,3.682,,,,,,,,,,,,,,,,,,,,,,,,,,,,,,,,,,,,49.926,3.682
Villers-Saint-Christophe,49.78,3.091,,,,,,,,,,,,,,,,,,,,,,,,,,,,,,,,,,,,49.78,3.091
Villers-sur-Fère,49.172,3.532,,,,,,,,,,,,,,,,,,,,,,,,,,,,,,,,,,,,49.172,3.532
Ville-Savoye,49.293,3.638,,,,,,,,,,,,,,,,,,,,,,,,,,,,,,,,,,,,49.293,3.638
Villiers-Saint-Denis,48.998,3.261,,,,,,,,,,,,,,,,,,,,,,,,,,,,,,,,,,,,48.998,3.261
Vincy-Reuil-et-Magny,49.714,4.045,,,,,,,,,,,,,,,,,,,,,,,,,,,,,,,,,,,,49.714,4.045
Viry-Noureuil,49.638,3.248,,,,,,,,,,,,,,,,,,,,,,,,,,,,,,,,,,,,49.638,3.248
Vivaise,49.623,3.564,,,,,,,,,,,,,,,,,,,,,,,,,,,,,,,,,,,,49.623,3.564
Vivières,49.305,3.092,,,,,,,,,,,,,,,,,,,,,,,,,,,,,,,,,,,,49.305,3.092
Voharies,49.787,3.792,,,,,,,,,,,,,,,,,,,,,,,,,,,,,,,,,,,,49.787,3.792
Vorges,49.518,3.651,,,,,,,,,,,,,,,,,,,,,,,,,,,,,,,,,,,,49.518,3.651
Voulpaix,49.839,3.833,,,,,,,,,,,,,,,,,,,,,,,,,,,,,,,,,,,,49.839,3.833
Voyenne,49.716,3.738,,,,,,,,,,,,,,,,,,,,,,,,,,,,,,,,,,,,49.716,3.738
Vregny,49.414,3.42,,,,,,,,,,,,,,,,,,,,,,,,,,,,,,,,,,,,49.414,3.42
Vuillery,49.431,3.388,,,,,,,,,,,,,,,,,,,,,,,,,,,,,,,,,,,,49.431,3.388
Wassigny,50.018,3.599,,,,,,,,,,,,,,,,,,,,,,,,,,,,,,,,,,,,50.018,3.599
Watigny,49.916,4.2,,,,,,,,,,,,,,,,,,,,,,,,,,,,,,,,,,,,49.916,4.2
Wiège-Faty,49.883,3.713,,,,,,,,,,,,,,,,,,,,,,,,,,,,,,,,,,,,49.883,3.713
Wimy,49.948,3.997,,,,,,,,,,,,,,,,,,,,,,,,,,,,,,,,,,,,49.948,3.997
Wissignicourt,49.53,3.441,,,,,,,,,,,,,,,,,,,,,,,,,,,,,,,,,,,,49.53,3.441
Abrest,46.096,3.45,,,,,,,,,,,,,,,,,,,,,,,,,,,,,,,,,,,,46.096,3.45
Agonges,46.618,3.149,,,,,,,,,,,,,,,,,,,,,,,,,,,,,,,,,,,,46.618,3.149
Ainay-le-Château,46.716,2.721,,,,,,,,,,,,,,,,,,,,,,,,,,,,,,,,,,,,46.716,2.721
Andelaroche,46.25,3.746,,,,,,,,,,,,,,,,,,,,,,,,,,,,,,,,,,,,46.25,3.746
Archignat,46.367,2.41,,,,,,,,,,,,,,,,,,,,,,,,,,,,,,,,,,,,46.367,2.41
Arfeuilles,46.143,3.743,,,,,,,,,,,,,,,,,,,,,,,,,,,,,,,,,,,,46.143,3.743
Arpheuilles-Saint-Priest,46.227,2.665,,,,,,,,,,,,,,,,,,,,,,,,,,,,,,,,,,,,46.227,2.665
Arronnes,46.052,3.575,,,,,,,,,,,,,,,,,,,,,,,,,,,,,,,,,,,,46.052,3.575
Aubigny,46.673,3.162,,,,,,,,,,,,,,,,,,,,,,,,,,,,,,,,,,,,46.673,3.162
Audes,46.461,2.559,,,,,,,,,,,,,,,,,,,,,,,,,,,,,,,,,,,,46.461,2.559
Aurouër,46.683,3.305,,,,,,,,,,,,,,,,,,,,,,,,,,,,,,,,,,,,46.683,3.305
Autry-Issards,46.545,3.123,,,,,,,,,,,,,,,,,,,,,,,,,,,,,,,,,,,,46.545,3.123
Avermes,46.598,3.319,,,,,,,,,,,,,,,,,,,,,,,,,,,,,,,,,,,,46.598,3.319
Avrilly,46.332,3.967,,,,,,,,,,,,,,,,,,,,,,,,,,,,,,,,,,,,46.332,3.967
Bagneux,46.646,3.204,,,,,,,,,,,,,,,,,,,,,,,,,,,,,,,,,,,,46.646,3.204
Barberier,46.22,3.249,,,,,,,,,,,,,,,,,,,,,,,,,,,,,,,,,,,,46.22,3.249
Barrais-Bussolles,46.284,3.698,,,,,,,,,,,,,,,,,,,,,,,,,,,,,,,,,,,,46.284,3.698
Bayet,46.258,3.277,,,,,,,,,,,,,,,,,,,,,,,,,,,,,,,,,,,,46.258,3.277
Beaulon,46.587,3.669,,,,,,,,,,,,,,,,,,,,,,,,,,,,,,,,,,,,46.587,3.669
Beaune-d'Allier,46.273,2.891,,,,,,,,,,,,,,,,,,,,,,,,,,,,,,,,,,,,46.273,2.891
Bègues,46.123,3.143,,,,,,,,,,,,,,,,,,,,,,,,,,,,,,,,,,,,46.123,3.143
Bellenaves,46.206,3.066,,,,,,,,,,,,,,,,,,,,,,,,,,,,,,,,,,,,46.206,3.066
Bellerive-sur-Allier,46.122,3.397,,,,,,,,,,,,,,,,,,,,,,,,,,,,,,,,,,,,46.122,3.397
Bert,46.328,3.702,,,,,,,,,,,,,,,,,,,,,,,,,,,,,,,,,,,,46.328,3.702
Bessay-sur-Allier,46.451,3.368,,,,,,,,,,,,,,,,,,,,,,,,,,,,,,,,,,,,46.451,3.368
Besson,46.481,3.255,,,,,,,,,,,,,,,,,,,,,,,,,,,,,,,,,,,,46.481,3.255
Bézenet,46.332,2.849,,,,,,,,,,,,,,,,,,,,,,,,,,,,,,,,,,,,46.332,2.849
Billezois,46.21,3.577,,,,,,,,,,,,,,,,,,,,,,,,,,,,,,,,,,,,46.21,3.577
Billy,46.232,3.44,,,,,,,,,,,,,,,,,,,,,,,,,,,,,,,,,,,,46.232,3.44
Biozat,46.081,3.289,,,,,,,,,,,,,,,,,,,,,,,,,,,,,,,,,,,,46.081,3.289
Bizeneuille,46.402,2.731,,,,,,,,,,,,,,,,,,,,,,,,,,,,,,,,,,,,46.402,2.731
Blomard,46.288,2.963,,,,,,,,,,,,,,,,,,,,,,,,,,,,,,,,,,,,46.288,2.963
Bost,46.183,3.506,,,,,,,,,,,,,,,,,,,,,,,,,,,,,,,,,,,,46.183,3.506
Boucé,46.32,3.492,,,,,,,,,,,,,,,,,,,,,,,,,,,,,,,,,,,,46.32,3.492
Le Bouchaud,46.307,3.907,,,,,,,,,,,,,,,,,,,,,,,,,,,,,,,,,,,,46.307,3.907
Bourbon-l'Archambault,46.584,3.051,,,,,,,,,,,,,,,,,,,,,,,,,,,,,,,,,,,,46.584,3.051
Braize,46.659,2.654,,,,,,,,,,,,,,,,,,,,,,,,,,,,,,,,,,,,46.659,2.654
Bransat,46.329,3.217,,,,,,,,,,,,,,,,,,,,,,,,,,,,,,,,,,,,46.329,3.217
Bresnay,46.434,3.249,,,,,,,,,,,,,,,,,,,,,,,,,,,,,,,,,,,,46.434,3.249
Bressolles,46.528,3.296,,,,,,,,,,,,,,,,,,,,,,,,,,,,,,,,,,,,46.528,3.296
Le Brethon,46.584,2.715,,,,,,,,,,,,,,,,,,,,,,,,,,,,,,,,,,,,46.584,2.715
Le Breuil,46.177,3.669,,,,,,,,,,,,,,,,,,,,,,,,,,,,,,,,,,,,46.177,3.669
Broût-Vernet,46.196,3.288,,,,,,,,,,,,,,,,,,,,,,,,,,,,,,,,,,,,46.196,3.288
Brugheas,46.073,3.366,,,,,,,,,,,,,,,,,,,,,,,,,,,,,,,,,,,,46.073,3.366
Busset,46.057,3.515,,,,,,,,,,,,,,,,,,,,,,,,,,,,,,,,,,,,46.057,3.515
Buxières-les-Mines,46.47,2.955,,,,,,,,,,,,,,,,,,,,,,,,,,,,,,,,,,,,46.47,2.955
La Celle,46.228,2.779,,,,,,,,,,,,,,,,,,,,,,,,,,,,,,,,,,,,46.228,2.779
Cérilly,46.626,2.809,,,,,,,,,,,,,,,,,,,,,,,,,,,,,,,,,,,,46.626,2.809
Cesset,46.299,3.199,,,,,,,,,,,,,,,,,,,,,,,,,,,,,,,,,,,,46.299,3.199
La Chabanne,46.024,3.752,,,,,,,,,,,,,,,,,,,,,,,,,,,,,,,,,,,,46.024,3.752
Chambérat,46.414,2.426,,,,,,,,,,,,,,,,,,,,,,,,,,,,,,,,,,,,46.414,2.426
Chamblet,46.328,2.713,,,,,,,,,,,,,,,,,,,,,,,,,,,,,,,,,,,,46.328,2.713
Chantelle,46.236,3.16,,,,,,,,,,,,,,,,,,,,,,,,,,,,,,,,,,,,46.236,3.16
Chapeau,46.492,3.516,,,,,,,,,,,,,,,,,,,,,,,,,,,,,,,,,,,,46.492,3.516
La Chapelaude,46.428,2.504,,,,,,,,,,,,,,,,,,,,,,,,,,,,,,,,,,,,46.428,2.504
La Chapelle,46.089,3.588,,,,,,,,,,,,,,,,,,,,,,,,,,,,,,,,,,,,46.089,3.588
La Chapelle-aux-Chasses,46.66,3.53,,,,,,,,,,,,,,,,,,,,,,,,,,,,,,,,,,,,46.66,3.53
Chappes,46.383,2.944,,,,,,,,,,,,,,,,,,,,,,,,,,,,,,,,,,,,46.383,2.944
Chareil-Cintrat,46.266,3.23,,,,,,,,,,,,,,,,,,,,,,,,,,,,,,,,,,,,46.266,3.23
Charmeil,46.16,3.393,,,,,,,,,,,,,,,,,,,,,,,,,,,,,,,,,,,,46.16,3.393
Charmes,46.083,3.246,,,,,,,,,,,,,,,,,,,,,,,,,,,,,,,,,,,,46.083,3.246
Charroux,46.182,3.164,,,,,,,,,,,,,,,,,,,,,,,,,,,,,,,,,,,,46.182,3.164
Chassenard,46.442,3.973,,,,,,,,,,,,,,,,,,,,,,,,,,,,,,,,,,,,46.442,3.973
Château-sur-Allier,46.782,2.987,,,,,,,,,,,,,,,,,,,,,,,,,,,,,,,,,,,,46.782,2.987
Châtel-de-Neuvre,46.416,3.298,,,,,,,,,,,,,,,,,,,,,,,,,,,,,,,,,,,,46.416,3.298
Châtel-Montagne,46.1,3.717,,,,,,,,,,,,,,,,,,,,,,,,,,,,,,,,,,,,46.1,3.717
Châtelperron,46.397,3.633,,,,,,,,,,,,,,,,,,,,,,,,,,,,,,,,,,,,46.397,3.633
Châtelus,46.198,3.725,,,,,,,,,,,,,,,,,,,,,,,,,,,,,,,,,,,,46.198,3.725
Châtillon,46.462,3.128,,,,,,,,,,,,,,,,,,,,,,,,,,,,,,,,,,,,46.462,3.128
Chavenon,46.422,2.952,,,,,,,,,,,,,,,,,,,,,,,,,,,,,,,,,,,,46.422,2.952
Chavroches,46.354,3.597,,,,,,,,,,,,,,,,,,,,,,,,,,,,,,,,,,,,46.354,3.597
Chazemais,46.487,2.519,,,,,,,,,,,,,,,,,,,,,,,,,,,,,,,,,,,,46.487,2.519
Chemilly,46.478,3.313,,,,,,,,,,,,,,,,,,,,,,,,,,,,,,,,,,,,46.478,3.313
Chevagnes,46.608,3.564,,,,,,,,,,,,,,,,,,,,,,,,,,,,,,,,,,,,46.608,3.564
Chezelle,46.213,3.112,,,,,,,,,,,,,,,,,,,,,,,,,,,,,,,,,,,,46.213,3.112
Chézy,46.612,3.459,,,,,,,,,,,,,,,,,,,,,,,,,,,,,,,,,,,,46.612,3.459
Chirat-l'Église,46.246,3.032,,,,,,,,,,,,,,,,,,,,,,,,,,,,,,,,,,,,46.246,3.032
Chouvigny,46.126,3.005,,,,,,,,,,,,,,,,,,,,,,,,,,,,,,,,,,,,46.126,3.005
Cindré,46.323,3.551,,,,,,,,,,,,,,,,,,,,,,,,,,,,,,,,,,,,46.323,3.551
Cognat-Lyonne,46.107,3.298,,,,,,,,,,,,,,,,,,,,,,,,,,,,,,,,,,,,46.107,3.298
Colombier,46.267,2.794,,,,,,,,,,,,,,,,,,,,,,,,,,,,,,,,,,,,46.267,2.794
Commentry,46.279,2.749,,,,,,,,,,,,,,,,,,,,,,,,,,,,,,,,,,,,46.279,2.749
Contigny,46.346,3.315,,,,,,,,,,,,,,,,,,,,,,,,,,,,,,,,,,,,46.346,3.315
Cosne-d'Allier,46.483,2.823,,,,,,,,,,,,,,,,,,,,,,,,,,,,,,,,,,,,46.483,2.823
Coulandon,46.555,3.245,,,,,,,,,,,,,,,,,,,,,,,,,,,,,,,,,,,,46.555,3.245
Coulanges,46.475,3.863,,,,,,,,,,,,,,,,,,,,,,,,,,,,,,,,,,,,46.475,3.863
Couleuvre,46.674,2.897,,,,,,,,,,,,,,,,,,,,,,,,,,,,,,,,,,,,46.674,2.897
Courçais,46.464,2.449,,,,,,,,,,,,,,,,,,,,,,,,,,,,,,,,,,,,46.464,2.449
Coutansouze,46.205,3.008,,,,,,,,,,,,,,,,,,,,,,,,,,,,,,,,,,,,46.205,3.008
Couzon,46.644,3.114,,,,,,,,,,,,,,,,,,,,,,,,,,,,,,,,,,,,46.644,3.114
Créchy,46.27,3.424,,,,,,,,,,,,,,,,,,,,,,,,,,,,,,,,,,,,46.27,3.424
Cressanges,46.444,3.171,,,,,,,,,,,,,,,,,,,,,,,,,,,,,,,,,,,,46.444,3.171
Creuzier-le-Neuf,46.178,3.463,,,,,,,,,,,,,,,,,,,,,,,,,,,,,,,,,,,,46.178,3.463
Creuzier-le-Vieux,46.161,3.434,,,,,,,,,,,,,,,,,,,,,,,,,,,,,,,,,,,,46.161,3.434
Cusset,46.138,3.483,,,,,,,,,,,,,,,,,,,,,,,,,,,,,,,,,,,,46.138,3.483
Deneuille-lès-Chantelle,46.253,3.146,,,,,,,,,,,,,,,,,,,,,,,,,,,,,,,,,,,,46.253,3.146
Deneuille-les-Mines,46.378,2.776,,,,,,,,,,,,,,,,,,,,,,,,,,,,,,,,,,,,46.378,2.776
Désertines,46.357,2.627,,,,,,,,,,,,,,,,,,,,,,,,,,,,,,,,,,,,46.357,2.627
Deux-Chaises,46.375,3.041,,,,,,,,,,,,,,,,,,,,,,,,,,,,,,,,,,,,46.375,3.041
Diou,46.523,3.737,,,,,,,,,,,,,,,,,,,,,,,,,,,,,,,,,,,,46.523,3.737
Domérat,46.368,2.544,,,,,,,,,,,,,,,,,,,,,,,,,,,,,,,,,,,,46.368,2.544
Dompierre-sur-Besbre,46.531,3.676,,,,,,,,,,,,,,,,,,,,,,,,,,,,,,,,,,,,46.531,3.676
Le Donjon,46.345,3.8,,,,,,,,,,,,,,,,,,,,,,,,,,,,,,,,,,,,46.345,3.8
Doyet,46.343,2.792,,,,,,,,,,,,,,,,,,,,,,,,,,,,,,,,,,,,46.343,2.792
Droiturier,46.227,3.705,,,,,,,,,,,,,,,,,,,,,,,,,,,,,,,,,,,,46.227,3.705
Durdat-Larequille,46.254,2.697,,,,,,,,,,,,,,,,,,,,,,,,,,,,,,,,,,,,46.254,2.697
Ébreuil,46.118,3.074,,,,,,,,,,,,,,,,,,,,,,,,,,,,,,,,,,,,46.118,3.074
Échassières,46.196,2.946,,,,,,,,,,,,,,,,,,,,,,,,,,,,,,,,,,,,46.196,2.946
Escurolles,46.142,3.268,,,,,,,,,,,,,,,,,,,,,,,,,,,,,,,,,,,,46.142,3.268
Espinasse-Vozelle,46.129,3.335,,,,,,,,,,,,,,,,,,,,,,,,,,,,,,,,,,,,46.129,3.335
Estivareilles,46.425,2.625,,,,,,,,,,,,,,,,,,,,,,,,,,,,,,,,,,,,46.425,2.625
Étroussat,46.22,3.221,,,,,,,,,,,,,,,,,,,,,,,,,,,,,,,,,,,,46.22,3.221
Ferrières-sur-Sichon,46.02,3.648,,,,,,,,,,,,,,,,,,,,,,,,,,,,,,,,,,,,46.02,3.648
La Ferté-Hauterive,46.396,3.336,,,,,,,,,,,,,,,,,,,,,,,,,,,,,,,,,,,,46.396,3.336
Fleuriel,46.287,3.162,,,,,,,,,,,,,,,,,,,,,,,,,,,,,,,,,,,,46.287,3.162
Fourilles,46.244,3.198,,,,,,,,,,,,,,,,,,,,,,,,,,,,,,,,,,,,46.244,3.198
Franchesse,46.644,3.037,,,,,,,,,,,,,,,,,,,,,,,,,,,,,,,,,,,,46.644,3.037
Gannat,46.098,3.178,,,,,,,,,,,,,,,,,,,,,,,,,,,,,,,,,,,,46.098,3.178
Gannay-sur-Loire,46.718,3.596,,,,,,,,,,,,,,,,,,,,,,,,,,,,,,,,,,,,46.718,3.596
Garnat-sur-Engièvre,46.635,3.668,,,,,,,,,,,,,,,,,,,,,,,,,,,,,,,,,,,,46.635,3.668
Gennetines,46.63,3.405,,,,,,,,,,,,,,,,,,,,,,,,,,,,,,,,,,,,46.63,3.405
Gipcy,46.511,3.051,,,,,,,,,,,,,,,,,,,,,,,,,,,,,,,,,,,,46.511,3.051
Gouise,46.411,3.438,,,,,,,,,,,,,,,,,,,,,,,,,,,,,,,,,,,,46.411,3.438
La Guillermie,45.981,3.645,,,,,,,,,,,,,,,,,,,,,,,,,,,,,,,,,,,,45.981,3.645
Hauterive,46.077,3.439,,,,,,,,,,,,,,,,,,,,,,,,,,,,,,,,,,,,46.077,3.439
Hérisson,46.52,2.71,,,,,,,,,,,,,,,,,,,,,,,,,,,,,,,,,,,,46.52,2.71
Huriel,46.377,2.482,,,,,,,,,,,,,,,,,,,,,,,,,,,,,,,,,,,,46.377,2.482
Hyds,46.273,2.828,,,,,,,,,,,,,,,,,,,,,,,,,,,,,,,,,,,,46.273,2.828
Isle-et-Bardais,46.682,2.777,,,,,,,,,,,,,,,,,,,,,,,,,,,,,,,,,,,,46.682,2.777
Isserpent,46.154,3.618,,,,,,,,,,,,,,,,,,,,,,,,,,,,,,,,,,,,46.154,3.618
Jaligny-sur-Besbre,46.377,3.59,,,,,,,,,,,,,,,,,,,,,,,,,,,,,,,,,,,,46.377,3.59
Jenzat,46.16,3.197,,,,,,,,,,,,,,,,,,,,,,,,,,,,,,,,,,,,46.16,3.197
Laféline,46.345,3.176,,,,,,,,,,,,,,,,,,,,,,,,,,,,,,,,,,,,46.345,3.176
Lalizolle,46.165,3.008,,,,,,,,,,,,,,,,,,,,,,,,,,,,,,,,,,,,46.165,3.008
Lamaids,46.304,2.438,,,,,,,,,,,,,,,,,,,,,,,,,,,,,,,,,,,,46.304,2.438
Langy,46.273,3.462,,,,,,,,,,,,,,,,,,,,,,,,,,,,,,,,,,,,46.273,3.462
Lapalisse,46.265,3.638,,,,,,,,,,,,,,,,,,,,,,,,,,,,,,,,,,,,46.265,3.638
Laprugne,45.994,3.763,,,,,,,,,,,,,,,,,,,,,,,,,,,,,,,,,,,,45.994,3.763
Lavault-Sainte-Anne,46.309,2.602,,,,,,,,,,,,,,,,,,,,,,,,,,,,,,,,,,,,46.309,2.602
Lavoine,45.974,3.687,,,,,,,,,,,,,,,,,,,,,,,,,,,,,,,,,,,,45.974,3.687
Lenax,46.304,3.831,,,,,,,,,,,,,,,,,,,,,,,,,,,,,,,,,,,,46.304,3.831
Lételon,46.656,2.595,,,,,,,,,,,,,,,,,,,,,,,,,,,,,,,,,,,,46.656,2.595
Liernolles,46.399,3.768,,,,,,,,,,,,,,,,,,,,,,,,,,,,,,,,,,,,46.399,3.768
Lignerolles,46.282,2.567,,,,,,,,,,,,,,,,,,,,,,,,,,,,,,,,,,,,46.282,2.567
Limoise,46.684,3.055,,,,,,,,,,,,,,,,,,,,,,,,,,,,,,,,,,,,46.684,3.055
Loddes,46.295,3.761,,,,,,,,,,,,,,,,,,,,,,,,,,,,,,,,,,,,46.295,3.761
Loriges,46.266,3.342,,,,,,,,,,,,,,,,,,,,,,,,,,,,,,,,,,,,46.266,3.342
Louchy-Montfand,46.308,3.245,,,,,,,,,,,,,,,,,,,,,,,,,,,,,,,,,,,,46.308,3.245
Louroux-Bourbonnais,46.534,2.838,,,,,,,,,,,,,,,,,,,,,,,,,,,,,,,,,,,,46.534,2.838
Louroux-de-Beaune,46.3,2.859,,,,,,,,,,,,,,,,,,,,,,,,,,,,,,,,,,,,46.3,2.859
Louroux-de-Bouble,46.23,2.973,,,,,,,,,,,,,,,,,,,,,,,,,,,,,,,,,,,,46.23,2.973
Luneau,46.366,3.953,,,,,,,,,,,,,,,,,,,,,,,,,,,,,,,,,,,,46.366,3.953
Lurcy-Lévis,46.735,2.918,,,,,,,,,,,,,,,,,,,,,,,,,,,,,,,,,,,,46.735,2.918
Lusigny,46.572,3.49,,,,,,,,,,,,,,,,,,,,,,,,,,,,,,,,,,,,46.572,3.49
Magnet,46.217,3.511,,,,,,,,,,,,,,,,,,,,,,,,,,,,,,,,,,,,46.217,3.511
Haut-Bocage,46.493,2.658,,,,,,,,,,,,,,,,,,,,,,,,,,,,,,,,,,,,46.493,2.658
Malicorne,46.307,2.77,,,,,,,,,,,,,,,,,,,,,,,,,,,,,,,,,,,,46.307,2.77
Marcenat,46.237,3.397,,,,,,,,,,,,,,,,,,,,,,,,,,,,,,,,,,,,46.237,3.397
Marcillat-en-Combraille,46.17,2.634,,,,,,,,,,,,,,,,,,,,,,,,,,,,,,,,,,,,46.17,2.634
Marigny,46.58,3.21,,,,,,,,,,,,,,,,,,,,,,,,,,,,,,,,,,,,46.58,3.21
Mariol,46.025,3.486,,,,,,,,,,,,,,,,,,,,,,,,,,,,,,,,,,,,46.025,3.486
Le Mayet-d'École,46.165,3.241,,,,,,,,,,,,,,,,,,,,,,,,,,,,,,,,,,,,46.165,3.241
